{
  "exportTimestamp": "2025-04-12T12:48:09.627015+00:00",
  "data": [
    {
      "stopId": 20000003,
      "nameEn": "LOCKHART ROAD, EAST OF MARSH ROAD",
      "nameTc": "\u99f1\u514b\u9053, \u99ac\u5e2b\u9053\u4ee5\u6771",
      "coordinates": [
        1.992812000645342,
        0.38884815233053877,
        85.19999694824219
      ],
      "operators": {
        "GMB": [
          "20000003"
        ]
      }
    },
    {
      "stopId": 20000004,
      "nameEn": "LOCKHART ROAD, SIU ON CENTRE",
      "nameTc": "\u99f1\u514b\u9053, \u5146\u5b89\u4e2d\u5fc3",
      "coordinates": [
        1.9927195331015715,
        0.3888289362554744,
        109.19999694824219
      ],
      "operators": {
        "GMB": [
          "20000004"
        ]
      }
    },
    {
      "stopId": 20000007,
      "nameEn": "QUEEN'S ROAD EAST, OUTSIDE THREE PACIFIC PLACE",
      "nameTc": "\u7687\u540e\u5927\u9053\u6771, \u592a\u53e4\u5ee3\u5834\u7b2c\u4e09\u5ea7\u5916",
      "coordinates": [
        1.9926123349789142,
        0.3888103310456481,
        182.6999969482422
      ],
      "operators": {
        "GMB": [
          "20000007"
        ]
      }
    },
    {
      "stopId": 20000008,
      "nameEn": "POK FU LAM ROAD, WEST GATE OF THE UNIVERSITY OF HONG KONG",
      "nameTc": "\u8584\u6276\u6797\u9053, \u9999\u6e2f\u5927\u5b78\u897f\u9598",
      "coordinates": [
        1.9920581929414058,
        0.38891962356340803,
        91.0
      ],
      "operators": {
        "GMB": [
          "20000008"
        ]
      }
    },
    {
      "stopId": 20000009,
      "nameEn": "POK FU LAM ROAD, OPPOSITE THE BELCHER'S",
      "nameTc": "\u8584\u6276\u6797\u9053, \u5bf6\u7fe0\u5712\u5c0d\u9762",
      "coordinates": [
        1.9920087477636972,
        0.3889301828053826,
        86.306396484375
      ],
      "operators": {
        "GMB": [
          "20000009"
        ]
      }
    },
    {
      "stopId": 20000010,
      "nameEn": "POKFULAM ROAD NEAR POKFIELD ROAD",
      "nameTc": "\u8584\u6276\u6797\u9053, \u84b2\u98db\u8def\u5df4\u58eb\u7e3d\u7ad9",
      "coordinates": [
        1.9919892698892445,
        0.38889550311314536,
        96.0
      ],
      "operators": {
        "GMB": [
          "20000010"
        ]
      }
    },
    {
      "stopId": 20000011,
      "nameEn": "SANDY BAY ROAD",
      "nameTc": "\u5927\u53e3\u74b0\u9053",
      "coordinates": [
        1.9918514935980922,
        0.38871419831044823,
        31.299999237060547
      ],
      "operators": {
        "GMB": [
          "20000011"
        ]
      }
    },
    {
      "stopId": 20000012,
      "nameEn": "POK FU LAM ROAD, OUTSIDE THE BELCHER'S",
      "nameTc": "\u8584\u6276\u6797\u9053, \u5bf6\u7fe0\u5712\u5916",
      "coordinates": [
        1.992006705728472,
        0.38893316731840344,
        69.9000015258789
      ],
      "operators": {
        "GMB": [
          "20000012"
        ]
      }
    },
    {
      "stopId": 20000013,
      "nameEn": "POK FU LAM ROAD WESTERN END OF BUS BAY WEST OF HILL ROAD FLYOVER",
      "nameTc": "\u8584\u6276\u6797\u9053\u5c71\u9053\u5929\u6a4b\u4ee5\u897f\u5df4\u58eb\u505c\u8eca\u8655\u897f\u7aef",
      "coordinates": [
        1.9920189055799435,
        0.3889363263643496,
        67.49272918701172
      ],
      "operators": {
        "GMB": [
          "20000013"
        ]
      }
    },
    {
      "stopId": 20000015,
      "nameEn": "BONHAM ROAD, HOUSE NO. 53",
      "nameTc": "\u822c\u54b8\u905353\u865f",
      "coordinates": [
        1.992139821990522,
        0.3889442327058611,
        128.5
      ],
      "operators": {
        "GMB": [
          "20000015"
        ]
      }
    },
    {
      "stopId": 20000016,
      "nameEn": "BONHAM ROAD, NEAR SAI YING PUN STATION EXIT C",
      "nameTc": "\u822c\u54b8\u9053, \u8fd1\u897f\u71df\u76e4\u7ad9 C \u51fa\u53e3",
      "coordinates": [
        1.9921767357042017,
        0.38893589003203655,
        75.0999984741211
      ],
      "operators": {
        "GMB": [
          "20000016"
        ]
      }
    },
    {
      "stopId": 20000017,
      "nameEn": "CAINE ROAD, NEAR LADDER STREET",
      "nameTc": "\u5805\u9053, \u8fd1\u6a13\u68af\u8857",
      "coordinates": [
        1.9922726066400136,
        0.3889144748421146,
        89.5
      ],
      "operators": {
        "GMB": [
          "20000017"
        ]
      }
    },
    {
      "stopId": 20000018,
      "nameEn": "CAINE ROAD, SHING WONG STREET",
      "nameTc": "\u5805\u9053, \u8fd1\u57ce\u7687\u8857",
      "coordinates": [
        1.992297844100997,
        0.38890864544241294,
        155.89999389648438
      ],
      "operators": {
        "GMB": [
          "20000018"
        ]
      }
    },
    {
      "stopId": 20000019,
      "nameEn": "79 CAINE ROAD, NEAR PEEL STREET",
      "nameTc": "\u5805\u905379\u865f, \u8fd1\u5351\u5229\u8857",
      "coordinates": [
        1.9923225754164982,
        0.3888886265158925,
        161.60000610351562
      ],
      "operators": {
        "GMB": [
          "20000019"
        ]
      }
    },
    {
      "stopId": 20000020,
      "nameEn": "QUEENSWAY, NEAR ADMIRALTY STATION EXIT C1",
      "nameTc": "\u91d1\u9418\u9053, \u91d1\u9418\u5eca\u5916",
      "coordinates": [
        1.9925496776587677,
        0.38883254908702597,
        17.799999237060547
      ],
      "operators": {
        "GMB": [
          "20000020"
        ]
      }
    },
    {
      "stopId": 20000021,
      "nameEn": "LOCKHART ROAD, EAST OF MARSH ROAD",
      "nameTc": "\u99f1\u514b\u9053, \u99ac\u5e2b\u9053\u4ee5\u6771",
      "coordinates": [
        1.9928309723743114,
        0.388858397413248,
        72.9000015258789
      ],
      "operators": {
        "GMB": [
          "20000021"
        ]
      }
    },
    {
      "stopId": 20000024,
      "nameEn": "PEDDER STREET, NEAR CENTRAL STATION EXIT D1",
      "nameTc": "\u7562\u6253\u8857, \u8fd1\u4e2d\u74b0\u7ad9 D1 \u51fa\u53e3",
      "coordinates": [
        1.99242045348095,
        0.3888903718451446,
        82.9000015258789
      ],
      "operators": {
        "GMB": [
          "20000024"
        ]
      }
    },
    {
      "stopId": 20000025,
      "nameEn": "LEIGHTON ROAD, OUTSIDE BONAVENTURE HOUSE",
      "nameTc": "\u79ae\u9813\u9053, \u96f2\u7fe0\u5927\u5ec8\u5916",
      "coordinates": [
        1.9928938042273832,
        0.38881726000277855,
        70.9000015258789
      ],
      "operators": {
        "GMB": [
          "20000025"
        ]
      }
    },
    {
      "stopId": 20000026,
      "nameEn": "COTTON TREE DRIVE, OUTSIDE HONG KONG SQUASH CENTRE",
      "nameTc": "\u7d05\u68c9\u8def, \u9999\u6e2f\u58c1\u7403\u4e2d\u5fc3\u5916",
      "coordinates": [
        1.9924751695529999,
        0.3888178883213092,
        41.79999923706055
      ],
      "operators": {
        "GMB": [
          "20000026"
        ]
      }
    },
    {
      "stopId": 20000048,
      "nameEn": "TSUNG TSIN BUILDING, MORRISON HILL ROAD",
      "nameTc": "\u5d07\u6b63\u5927\u5ec8, \u6469\u7406\u81e3\u5c71\u9053",
      "coordinates": [
        1.9928172540863907,
        0.3887849539583241,
        73.30000305175781
      ],
      "operators": {
        "GMB": [
          "20000048"
        ]
      }
    },
    {
      "stopId": 20000049,
      "nameEn": "32 MORRISON HILL ROAD",
      "nameTc": "\u6469\u7406\u81e3\u5c71\u905332\u865f",
      "coordinates": [
        1.9928191215886903,
        0.3888076432386,
        67.4000015258789
      ],
      "operators": {
        "GMB": [
          "20000049"
        ]
      }
    },
    {
      "stopId": 20000052,
      "nameEn": "NO.145 HENNESSY ROAD",
      "nameTc": "\u8ed2\u5c3c\u8a69\u9053145\u865f",
      "coordinates": [
        1.9926976990326293,
        0.38881900533203057,
        80.0999984741211
      ],
      "operators": {
        "GMB": [
          "20000052"
        ]
      }
    },
    {
      "stopId": 20000053,
      "nameEn": "NO.347 HENNESSY ROAD",
      "nameTc": "\u8ed2\u5c3c\u8a69\u9053347\u865f",
      "coordinates": [
        1.9928013366836126,
        0.38883743600893156,
        87.30000305175781
      ],
      "operators": {
        "GMB": [
          "20000053"
        ]
      }
    },
    {
      "stopId": 20000057,
      "nameEn": "WONG CHUK HANG ROAD, OUTSIDE WONG CHUK HANG RECREATION GROUND",
      "nameTc": "\u9ec3\u7af9\u5751\u9053, \u9ec3\u7af9\u5751\u904a\u6a02\u5834\u5916",
      "coordinates": [
        1.992650802035628,
        0.3883406454906439,
        7.561607837677002
      ],
      "operators": {
        "GMB": [
          "20000057"
        ]
      }
    },
    {
      "stopId": 20000058,
      "nameEn": "WONG CHUK HANG ROAD, VICTORY FACTORY BUILDING",
      "nameTc": "\u9ec3\u7af9\u5751\u9053, \u52dd\u5229\u5de5\u5ee0\u5927\u5ec8",
      "coordinates": [
        1.9925261855270355,
        0.3883072224354682,
        59.70000076293945
      ],
      "operators": {
        "GMB": [
          "20000058"
        ]
      }
    },
    {
      "stopId": 20000066,
      "nameEn": "DRAKE STREET, NEAR MTR EXIT",
      "nameTc": "\u5fb7\u7acb\u8857, \u8fd1\u6e2f\u9435\u7ad9\u5165\u53e3",
      "coordinates": [
        1.9925518767736248,
        0.3888442078864293,
        131.39999389648438
      ],
      "operators": {
        "GMB": [
          "20000066"
        ]
      }
    },
    {
      "stopId": 20000072,
      "nameEn": "POK FU LAM ROAD, OUTSIDE CHIU SHEUNG SCHOOL HONG KONG",
      "nameTc": "\u8584\u6276\u6797\u905379\u865f",
      "coordinates": [
        1.9920482096580845,
        0.3889234109278848,
        77.4000015258789
      ],
      "operators": {
        "GMB": [
          "20000072"
        ]
      }
    },
    {
      "stopId": 20000075,
      "nameEn": "BOWEN ROAD, OPPOSITE BORRETT MANSIONS",
      "nameTc": "\u5bf6\u96f2\u9053, \u5bf6\u5fb7\u81fa\u5c0d\u9762",
      "coordinates": [
        1.9925000754014257,
        0.3887609905876942,
        135.89999389648438
      ],
      "operators": {
        "GMB": [
          "20000075"
        ]
      }
    },
    {
      "stopId": 20000080,
      "nameEn": "KWUN LUNG LAU",
      "nameTc": "\u89c0\u9f8d\u6a13",
      "coordinates": [
        1.9919201897574508,
        0.38885544780681214,
        91.0999984741211
      ],
      "operators": {
        "GMB": [
          "20000080"
        ]
      }
    },
    {
      "stopId": 20000081,
      "nameEn": "CATCHICK STREET, NEAR TIMLEY COURT",
      "nameTc": "\u5409\u5e2d\u8857, \u8fd1\u6dfb\u5229\u95a3",
      "coordinates": [
        1.9918890181770104,
        0.38891374180382876,
        74.19999694824219
      ],
      "operators": {
        "GMB": [
          "20000081"
        ]
      }
    },
    {
      "stopId": 20000082,
      "nameEn": "DES VOEUX ROAD WEST, EASTERN END OF HONG KONG PLAZA",
      "nameTc": "\u5fb7\u8f14\u9053\u897f, \u9999\u6e2f\u5546\u696d\u4e2d\u5fc3\u6771\u7aef",
      "coordinates": [
        1.992049536108316,
        0.38897777793408445,
        111.0999984741211
      ],
      "operators": {
        "GMB": [
          "20000082"
        ]
      }
    },
    {
      "stopId": 20000085,
      "nameEn": "BELCHER'S STREET, NEAR SUN SHING BUILDING",
      "nameTc": "\u5351\u8def\u4e4d\u8857, \u8fd1\u65b0\u57ce\u5927\u6a13",
      "coordinates": [
        1.9919919576962928,
        0.38896941780696737,
        79.9000015258789
      ],
      "operators": {
        "GMB": [
          "20000085"
        ]
      }
    },
    {
      "stopId": 20000086,
      "nameEn": "BELCHER'S STREET, NEAR IMPERIAL KENNEDY",
      "nameTc": "\u5351\u8def\u4e4d\u8857, \u8fd1Imperial Kennedy",
      "coordinates": [
        1.9919210275154917,
        0.3889050849707389,
        154.60000610351562
      ],
      "operators": {
        "GMB": [
          "20000086"
        ]
      }
    },
    {
      "stopId": 20000088,
      "nameEn": "SMITHFIELD, NEAR MAN KWONG COURT",
      "nameTc": "\u58eb\u7f8e\u83f2\u8def, \u8fd1\u6587\u5149\u95a3",
      "coordinates": [
        1.9919149363164024,
        0.38889658521728165,
        100.4000015258789
      ],
      "operators": {
        "GMB": [
          "20000088"
        ]
      }
    },
    {
      "stopId": 20000089,
      "nameEn": "NO.12R SMITHFIELD",
      "nameTc": "\u58eb\u7f8e\u83f2\u8def12R",
      "coordinates": [
        1.9919313598646633,
        0.3888669495265828,
        114.4000015258789
      ],
      "operators": {
        "GMB": [
          "20000089"
        ]
      }
    },
    {
      "stopId": 20000090,
      "nameEn": "KA WAI MAN ROAD, NEAR SAI WAN ESTATE",
      "nameTc": "\u52a0\u60e0\u6c11\u9053, \u8fd1\u897f\u74b0\u90a8",
      "coordinates": [
        1.9918626113454274,
        0.388879376270857,
        76.5999984741211
      ],
      "operators": {
        "GMB": [
          "20000090"
        ]
      }
    },
    {
      "stopId": 20000091,
      "nameEn": "CADOGAN STREET, OUTSIDE CADOGAN STREET GARDEN",
      "nameTc": "\u52a0\u591a\u8fd1\u8857,\u52a0\u591a\u8fd1\u8857\u82b1\u5712\u5916",
      "coordinates": [
        1.9918724200958235,
        0.38890822656339247,
        5.046578407287598
      ],
      "operators": {
        "GMB": [
          "20000091"
        ]
      }
    },
    {
      "stopId": 20000092,
      "nameEn": "POK FU LAM ROAD, OPPOSITE ST. STEPHEN'S CHURCH COLLEGE",
      "nameTc": "\u8584\u6276\u6797\u9053, \u8056\u58eb\u63d0\u53cd\u5802\u4e2d\u5b78\u5c0d\u9762",
      "coordinates": [
        1.9920900277469624,
        0.38895210414078757,
        140.10000610351562
      ],
      "operators": {
        "GMB": [
          "20000092"
        ]
      }
    },
    {
      "stopId": 20000093,
      "nameEn": "NEAR LEE GARDEN ONE, LAN FONG ROAD",
      "nameTc": "\u862d\u82b3\u9053, \u8fd1\u5229\u5712\u4e00\u671f",
      "coordinates": [
        1.9928936296944582,
        0.3888355510533394,
        209.6999969482422
      ],
      "operators": {
        "GMB": [
          "20000093"
        ]
      }
    },
    {
      "stopId": 20000094,
      "nameEn": "CHUN FAI ROAD, OUTSIDE BLOCK 3, FLORA GARDEN",
      "nameTc": "\u6625\u6689\u9053, \u6167\u666f\u5712\u7b2c3\u5ea7\u5916",
      "coordinates": [
        1.9930636596701874,
        0.3887464869016101,
        166.0
      ],
      "operators": {
        "GMB": [
          "20000094"
        ]
      }
    },
    {
      "stopId": 20000095,
      "nameEn": "MOORSOM ROAD NEAR AURIZON",
      "nameTc": "\u7766\u8aa0\u9053, \u8fd1\u91d1\u96f2\u95a3",
      "coordinates": [
        1.9930567132597645,
        0.3887272533732532,
        168.0
      ],
      "operators": {
        "GMB": [
          "20000095"
        ]
      }
    },
    {
      "stopId": 20000096,
      "nameEn": "MOORSOM ROAD, OUTSIDE BUTLER GARDEN",
      "nameTc": "\u7766\u8aa0\u9053, \u67cf\u9e97\u5712\u5916",
      "coordinates": [
        1.993086331497171,
        0.3886905316457912,
        234.39999389648438
      ],
      "operators": {
        "GMB": [
          "20000096"
        ]
      }
    },
    {
      "stopId": 20000097,
      "nameEn": "MOORSOM ROAD, OUTSIDE MOOROM LODGE",
      "nameTc": "\u7766\u8aa0\u9053, \u76db\u82d1\u5916",
      "coordinates": [
        1.9930666965430857,
        0.3886736543119244,
        172.6999969482422
      ],
      "operators": {
        "GMB": [
          "20000097"
        ]
      }
    },
    {
      "stopId": 20000098,
      "nameEn": "COPPER ROAD, OPPOSITE NO.10",
      "nameTc": "\u8c37\u67cf\u905310\u865f\u5c0d\u9762",
      "coordinates": [
        1.9930143541188183,
        0.3886397774711432,
        164.8000030517578
      ],
      "operators": {
        "GMB": [
          "20000098"
        ]
      }
    },
    {
      "stopId": 20000099,
      "nameEn": "STANLEY BEACH ROAD",
      "nameTc": "\u8d64\u67f1\u7058\u9053\u5927\u6f6d\u6751\u5916",
      "coordinates": [
        1.9933968604776857,
        0.387806888898799,
        14.300000190734863
      ],
      "operators": {
        "GMB": [
          "20000099"
        ]
      }
    },
    {
      "stopId": 20000101,
      "nameEn": "CHUNG HOM KOK ROAD, OUTSIDE SCAPE",
      "nameTc": "\u8202\u78e1\u89d2\u9053, \u5357\u57fc\u5916",
      "coordinates": [
        1.993255488808274,
        0.3877448075373055,
        74.5999984741211
      ],
      "operators": {
        "GMB": [
          "20000101"
        ]
      }
    },
    {
      "stopId": 20000102,
      "nameEn": "CHAI WAN STATION BUS TERMINUS",
      "nameTc": "\u6e2f\u9435\u67f4\u7063\u7ad9\u5df4\u58eb\u7e3d\u7ad9",
      "coordinates": [
        1.9938158267646269,
        0.3886017642000348,
        44.400001525878906
      ],
      "operators": {
        "GMB": [
          "20000102"
        ]
      }
    },
    {
      "stopId": 20000103,
      "nameEn": "CHAI WAN STATION BUS TERMINUS",
      "nameTc": "\u6e2f\u9435\u67f4\u7063\u7ad9\u5df4\u58eb\u7e3d\u7ad9",
      "coordinates": [
        1.9938142908748853,
        0.3885956206410678,
        23.100000381469727
      ],
      "operators": {
        "GMB": [
          "20000103"
        ]
      }
    },
    {
      "stopId": 20000104,
      "nameEn": "CAPE COLLINSON CORRECTIONAL INSTITUTION",
      "nameTc": "\u6b4c\u9023\u81e3\u89d2\u61f2\u6559\u6240",
      "coordinates": [
        1.9941008564847702,
        0.38835750537121816,
        72.0
      ],
      "operators": {
        "GMB": [
          "20000104"
        ]
      }
    },
    {
      "stopId": 20000105,
      "nameEn": "BESIDE BLOCK 2, CHAI WAN INDUSTRIAL CITY",
      "nameTc": "\u67f4\u7063\u5de5\u696d\u57ce\u7b2c2\u5ea7\u5074",
      "coordinates": [
        1.9939020460296752,
        0.38865674207147266,
        90.0999984741211
      ],
      "operators": {
        "GMB": [
          "20000105"
        ]
      }
    },
    {
      "stopId": 20000106,
      "nameEn": "NO.426 SHAU KEI WAN ROAD",
      "nameTc": "\u7b72\u7b95\u7063\u9053426\u865f",
      "coordinates": [
        1.993648257703143,
        0.38880972018040993,
        59.400001525878906
      ],
      "operators": {
        "GMB": [
          "20000106"
        ]
      }
    },
    {
      "stopId": 20000107,
      "nameEn": "NO.362 SHAU KEI WAN ROAD",
      "nameTc": "\u7b72\u7b95\u7063\u9053362\u865f",
      "coordinates": [
        1.9936277675377243,
        0.38883021034582826,
        33.400001525878906
      ],
      "operators": {
        "GMB": [
          "20000107"
        ]
      }
    },
    {
      "stopId": 20000108,
      "nameEn": "NO.322 SHAU KEI WAN ROAD",
      "nameTc": "\u7b72\u7b95\u7063\u9053322\u865f",
      "coordinates": [
        1.9936201579021857,
        0.3888425149170549,
        79.5
      ],
      "operators": {
        "GMB": [
          "20000108"
        ]
      }
    },
    {
      "stopId": 20000109,
      "nameEn": "NO.286A SHAU KEI WAN ROAD",
      "nameTc": "\u7b72\u7b95\u7063\u9053286A\u865f",
      "coordinates": [
        1.9936127053462798,
        0.38885464495535627,
        43.400001525878906
      ],
      "operators": {
        "GMB": [
          "20000109"
        ]
      }
    },
    {
      "stopId": 20000110,
      "nameEn": "NO.250 SHAU KEI WAN ROAD",
      "nameTc": "\u7b72\u7b95\u7063\u9053250\u865f",
      "coordinates": [
        1.9936008545606585,
        0.3888634763213713,
        85.4000015258789
      ],
      "operators": {
        "GMB": [
          "20000110"
        ]
      }
    },
    {
      "stopId": 20000111,
      "nameEn": "NO.200 SHAU KEI WAN ROAD",
      "nameTc": "\u7b72\u7b95\u7063\u9053200\u865f",
      "coordinates": [
        1.9935786714258656,
        0.3888701085725289,
        82.5
      ],
      "operators": {
        "GMB": [
          "20000111"
        ]
      }
    },
    {
      "stopId": 20000118,
      "nameEn": "NO.275 SHAU KEI WAN ROAD",
      "nameTc": "\u7b72\u7b95\u7063\u9053275\u865f",
      "coordinates": [
        1.9936230376954516,
        0.3888433003152183,
        78.9000015258789
      ],
      "operators": {
        "GMB": [
          "20000118"
        ]
      }
    },
    {
      "stopId": 20000119,
      "nameEn": "NO.345 SHAU KEI WAN ROAD",
      "nameTc": "\u7b72\u7b95\u7063\u9053345\u865f",
      "coordinates": [
        1.9936424981166112,
        0.3888160208190096,
        32.79999923706055
      ],
      "operators": {
        "GMB": [
          "20000119"
        ]
      }
    },
    {
      "stopId": 20000120,
      "nameEn": "HING MAN ESTATE, OUTSIDE MAN FU HOUSE",
      "nameTc": "\u8208\u6c11\u90a8, \u6c11\u5bcc\u6a13\u5916",
      "coordinates": [
        1.9937357510585452,
        0.38864466439304884,
        206.89999389648438
      ],
      "operators": {
        "GMB": [
          "20000120"
        ]
      }
    },
    {
      "stopId": 20000121,
      "nameEn": "9 TAI HANG ROAD",
      "nameTc": "\u5927\u5751\u9053 9\u865f",
      "coordinates": [
        1.993050622060675,
        0.3888093711145595,
        57.20000076293945
      ],
      "operators": {
        "GMB": [
          "20000121"
        ]
      }
    },
    {
      "stopId": 20000122,
      "nameEn": "NEAR GRAND DECO TOWER, TAI HANG ROAD",
      "nameTc": "\u5927\u5751\u9053, \u8fd1\u5e1d\u540e\u81fa",
      "coordinates": [
        1.9930494352367836,
        0.3888078003182327,
        162.89999389648438
      ],
      "operators": {
        "GMB": [
          "20000122"
        ]
      }
    },
    {
      "stopId": 20000123,
      "nameEn": "LAI TAK TSUEN ROAD",
      "nameTc": "\u52f5\u5fb7\u90a8\u9053",
      "coordinates": [
        1.993070431547685,
        0.38881787086801667,
        125.0
      ],
      "operators": {
        "GMB": [
          "20000123"
        ]
      }
    },
    {
      "stopId": 20000124,
      "nameEn": "LAI TAK TSUEN",
      "nameTc": "\u52f5\u5fb7\u90a8",
      "coordinates": [
        1.9930653526395616,
        0.3888339628037201,
        122.69999694824219
      ],
      "operators": {
        "GMB": [
          "20000124"
        ]
      }
    },
    {
      "stopId": 20000125,
      "nameEn": "OPPOSITE TO RONSDALE GARDEN, TAI HANG DRIVE",
      "nameTc": "\u5927\u5751\u5f91,\u9f8d\u83ef\u82b1\u5712\u5c0d\u9762",
      "coordinates": [
        1.9930958260883014,
        0.38876207269183044,
        120.0
      ],
      "operators": {
        "GMB": [
          "20000125"
        ]
      }
    },
    {
      "stopId": 20000126,
      "nameEn": "CHI FU ROAD, OUTSIDE BLOCK NO. 14",
      "nameTc": "\u5229\u7267\u5f91, \u8584\u6276\u6797\u82b1\u5712",
      "coordinates": [
        1.9920662738158428,
        0.3884811444954295,
        223.8000030517578
      ],
      "operators": {
        "GMB": [
          "20000126"
        ]
      }
    },
    {
      "stopId": 20000127,
      "nameEn": "CHI FU ROAD, OUTSIDE BLOCK NO. 10",
      "nameTc": "\u7f6e\u5bcc\u9053\u7b2c10\u5ea7\u5916",
      "coordinates": [
        1.9921126821206532,
        0.3884650874663111,
        220.3000030517578
      ],
      "operators": {
        "GMB": [
          "20000127"
        ]
      }
    },
    {
      "stopId": 20000130,
      "nameEn": "CHI FU ROAD, OUTSIDE BLOCK NO. 10",
      "nameTc": "\u7f6e\u5bcc\u9053\u7b2c9\u5ea7\u5916",
      "coordinates": [
        1.992111163684204,
        0.3884639704555898,
        220.3000030517578
      ],
      "operators": {
        "GMB": [
          "20000130"
        ]
      }
    },
    {
      "stopId": 20000134,
      "nameEn": "NEAR AIA BUILDING, STUBBS ROAD",
      "nameTc": "\u53f8\u5f92\u62d4\u9053, \u8fd1\u53cb\u90a6\u5927\u5ec8",
      "coordinates": [
        1.9927718755258388,
        0.38875941979136736,
        31.186243057250977
      ],
      "operators": {
        "GMB": [
          "20000134"
        ]
      }
    },
    {
      "stopId": 20000135,
      "nameEn": "SHIU FAI TERRACE",
      "nameTc": "\u8087\u8f1d\u53f0",
      "coordinates": [
        1.9927486626467874,
        0.38872648542838223,
        113.5
      ],
      "operators": {
        "GMB": [
          "20000135"
        ]
      }
    },
    {
      "stopId": 20000136,
      "nameEn": "QUEEN'S ROAD EAST, NEAR WAH YAN COLLEGE",
      "nameTc": "\u7687\u540e\u5927\u9053\u6771, \u8fd1\u83ef\u4ec1\u66f8\u9662",
      "coordinates": [
        1.9927478248887465,
        0.38876856531664783,
        28.440898895263672
      ],
      "operators": {
        "GMB": [
          "20000136"
        ]
      }
    },
    {
      "stopId": 20000137,
      "nameEn": "NO.213 QUEEN'S ROAD EAST",
      "nameTc": "\u7687\u540e\u5927\u9053\u6771213\u865f",
      "coordinates": [
        1.992689565798315,
        0.3887633642354769,
        137.5
      ],
      "operators": {
        "GMB": [
          "20000137"
        ]
      }
    },
    {
      "stopId": 20000138,
      "nameEn": "QUEEN'S ROAD EAST, OUTSIDE THREE PACIFIC PLACE",
      "nameTc": "\u7687\u540e\u5927\u9053\u6771, \u5408\u548c\u4e2d\u5fc3\u5916",
      "coordinates": [
        1.9926736483955367,
        0.3887715498296687,
        220.1999969482422
      ],
      "operators": {
        "GMB": [
          "20000138"
        ]
      }
    },
    {
      "stopId": 20000139,
      "nameEn": "LOCKHART ROAD, WEST OF LUARD ROAD",
      "nameTc": "\u99f1\u514b\u9053, \u76e7\u62bc\u9053\u4ee5\u897f",
      "coordinates": [
        1.9926692501658216,
        0.3888253059706302,
        76.5999984741211
      ],
      "operators": {
        "GMB": [
          "20000139"
        ]
      }
    },
    {
      "stopId": 20000140,
      "nameEn": "NO.111 MOUNT BULTER ROAD, OPPOSITE BLOCK M",
      "nameTc": "\u7562\u62c9\u5c71\u9053111\u865fM\u5ea7\u5c0d\u9762",
      "coordinates": [
        1.9931085320852564,
        0.38871384924459784,
        216.0
      ],
      "operators": {
        "GMB": [
          "20000140"
        ]
      }
    },
    {
      "stopId": 20000142,
      "nameEn": "UPPER BRAEMAR HILL BUS TERMINUS",
      "nameTc": "\u5bf6\u99ac\u5c71\u5df4\u58eb\u7e3d\u7ad9",
      "coordinates": [
        1.9931446254941871,
        0.3889140210565091,
        199.60000610351562
      ],
      "operators": {
        "GMB": [
          "20000142"
        ]
      }
    },
    {
      "stopId": 20000143,
      "nameEn": "BRAEMAR HILL ROAD, OUTSIDE OXFORD COURT",
      "nameTc": "\u5bf6\u99ac\u5c71\u9053, \u8c50\u6797\u95a3\u5916",
      "coordinates": [
        1.9931558130546927,
        0.3889439534531808,
        182.8000030517578
      ],
      "operators": {
        "GMB": [
          "20000143"
        ]
      }
    },
    {
      "stopId": 20000146,
      "nameEn": "TAI HANG ROAD, NEAR LI KWAN AVENUE",
      "nameTc": "\u5927\u5751\u9053, \u8fd1\u5229\u7fa4\u9053",
      "coordinates": [
        1.9930592614404725,
        0.38880401295375583,
        77.4000015258789
      ],
      "operators": {
        "GMB": [
          "20000146"
        ]
      }
    },
    {
      "stopId": 20000147,
      "nameEn": "PATERSON STREET, OUTSIDE PEARL CITY MANSION",
      "nameTc": "\u767e\u5fb7\u65b0\u8857, \u73e0\u57ce\u5927\u5ec8\u5916",
      "coordinates": [
        1.9929136137143935,
        0.3888759030656455,
        89.4000015258789
      ],
      "operators": {
        "GMB": [
          "20000147"
        ]
      }
    },
    {
      "stopId": 20000152,
      "nameEn": "QUEEN'S ROAD EAST, OUTSIDE QUEEN ELIZABETH STADIUM",
      "nameTc": "\u7687\u540e\u5927\u9053\u6771, \u4f0a\u5229\u6c99\u4f2f\u9ad4\u80b2\u9928\u5916",
      "coordinates": [
        1.9927943902731897,
        0.3887710785907707,
        42.900001525878906
      ],
      "operators": {
        "GMB": [
          "20000152"
        ]
      }
    },
    {
      "stopId": 20000157,
      "nameEn": "AP LEI CHAU BRIDGE ROAD, NEAR LEE CHI ROAD",
      "nameTc": "\u9d28\u8137\u6d32\u6a4b\u9053, \u8fd1\u5229\u679d\u9053",
      "coordinates": [
        1.9923821260505759,
        0.3882179837508137,
        23.387659072875977
      ],
      "operators": {
        "GMB": [
          "20000157"
        ]
      }
    },
    {
      "stopId": 20000159,
      "nameEn": "POLICE SCHOOL ROAD, NEAR SINGAPORE INTERNATIONAL SCHOOL",
      "nameTc": "\u8b66\u6821\u9053, \u8fd1\u65b0\u52a0\u5761\u570b\u969b\u5b78\u6821",
      "coordinates": [
        1.9926132250968325,
        0.38825583994228946,
        90.0
      ],
      "operators": {
        "GMB": [
          "20000159"
        ]
      }
    },
    {
      "stopId": 20000160,
      "nameEn": "SHUM WAN ROAD PUBLIC TRANSPORT TERMINUS",
      "nameTc": "\u6df1\u7063\u9053\u516c\u5171\u4ea4\u901a\u7e3d\u7ad9",
      "coordinates": [
        1.9925433072069978,
        0.38821595916888146,
        138.6999969482422
      ],
      "operators": {
        "GMB": [
          "20000160"
        ]
      }
    },
    {
      "stopId": 20000161,
      "nameEn": "NAM LONG SHAN ROAD, OUTSIDE NAM LONG SHAN ROAD COOKED FOOD MARKET",
      "nameTc": "\u5357\u6717\u5c71\u9053, \u5357\u6717\u5c71\u9053\u719f\u98df\u5e02\u5834",
      "coordinates": [
        1.99258037800031,
        0.38828846014600926,
        17.5
      ],
      "operators": {
        "GMB": [
          "20000161"
        ]
      }
    },
    {
      "stopId": 20000165,
      "nameEn": "HOLLY ROAD TERMINUS",
      "nameTc": "\u51ac\u9752\u9053\u7e3d\u7ad9",
      "coordinates": [
        1.992961697535286,
        0.3886125154282271,
        89.30000305175781
      ],
      "operators": {
        "GMB": [
          "20000165"
        ]
      }
    },
    {
      "stopId": 20000166,
      "nameEn": "NO. 60 SING WOO ROAD (NEAR POLICE STATION)",
      "nameTc": "\u6210\u548c\u905360\u865f(\u8fd1\u8b66\u7f72)",
      "coordinates": [
        1.9929435810176503,
        0.38863300559364544,
        30.200000762939453
      ],
      "operators": {
        "GMB": [
          "20000166"
        ]
      }
    },
    {
      "stopId": 20000169,
      "nameEn": "ABERDEEN PRAYA ROAD, NEAR ABERDEEN PROMENADE",
      "nameTc": "\u9999\u6e2f\u4ed4\u5927\u9053, \u9999\u6e2f\u4ed4\u6d77\u6ff1\u516c\u5712",
      "coordinates": [
        1.9923958268852042,
        0.38828261329301506,
        9.699999809265137
      ],
      "operators": {
        "GMB": [
          "20000169"
        ]
      }
    },
    {
      "stopId": 20000173,
      "nameEn": "BONHAM ROAD, NEAR HOSPITAL ROAD",
      "nameTc": "\u822c\u54b8\u9053, \u8fd1\u91ab\u9662\u9053",
      "coordinates": [
        1.992248049857438,
        0.38892360291410255,
        74.39452362060547
      ],
      "operators": {
        "GMB": [
          "20000173"
        ]
      }
    },
    {
      "stopId": 20000174,
      "nameEn": "POK FU LAM ROAD, POK FIELD ROAD",
      "nameTc": "\u8584\u6276\u6797\u9053, \u84b2\u98db\u8def",
      "coordinates": [
        1.9919799672843317,
        0.38889028457868197,
        79.08990478515625
      ],
      "operators": {
        "GMB": [
          "20000174"
        ]
      }
    },
    {
      "stopId": 20000175,
      "nameEn": "WAH FU ROAD, OUTSIDE PUI YING SECONDARY SCHOOL",
      "nameTc": "\u83ef\u5bcc\u9053, \u57f9\u82f1\u4e2d\u5b78\u5916",
      "coordinates": [
        1.992041577406927,
        0.38839839843559243,
        80.9000015258789
      ],
      "operators": {
        "GMB": [
          "20000175"
        ]
      }
    },
    {
      "stopId": 20000177,
      "nameEn": "WAH KING STREET, NEAR WAH CHUI HOUSE\t",
      "nameTc": "\u83ef\u666f\u8857, \u8fd1\u83ef\u7fe0\u6a13",
      "coordinates": [
        1.9920578438755554,
        0.3884065840297843,
        65.19999694824219
      ],
      "operators": {
        "GMB": [
          "20000177"
        ]
      }
    },
    {
      "stopId": 20000210,
      "nameEn": "MARBLE ROAD, OUTSIDE WAH LAI MANSION",
      "nameTc": "\u99ac\u5bf6\u9053,\u83ef\u79ae\u5927\u5ec8\u5916",
      "coordinates": [
        1.9931959730807813,
        0.3890692506401815,
        72.0
      ],
      "operators": {
        "GMB": [
          "20000210"
        ]
      }
    },
    {
      "stopId": 20000211,
      "nameEn": "JAVA ROAD, OUTSIDE KODAK HOUSE",
      "nameTc": "\u6e23\u83ef\u9053, \u67ef\u9054\u5927\u5ec8\u5916",
      "coordinates": [
        1.9932904826597766,
        0.3890752371195158,
        125.69999694824219
      ],
      "operators": {
        "GMB": [
          "20000211"
        ]
      }
    },
    {
      "stopId": 20000215,
      "nameEn": "KING'S ROAD, OUTSIDE SUNWAY GARDEN",
      "nameTc": "\u82f1\u7687\u9053, \u65b0\u5a01\u5712\u5916",
      "coordinates": [
        1.9933651478451768,
        0.3889559089585569,
        90.0999984741211
      ],
      "operators": {
        "GMB": [
          "20000215"
        ]
      }
    },
    {
      "stopId": 20000218,
      "nameEn": "NAM NING STREET, OUTSIDE HOI YING COURT",
      "nameTc": "\u5357\u5be7\u8857, \u6d77\u6e56\u95a3\u5916",
      "coordinates": [
        1.9923699087458122,
        0.3883174500648849,
        88.69999694824219
      ],
      "operators": {
        "GMB": [
          "20000218"
        ]
      }
    },
    {
      "stopId": 20000219,
      "nameEn": "WONG NAI CHUNG ROAD, NEAR HAU TAK LANE",
      "nameTc": "\u9ec3\u6ce5\u6d8c\u9053, \u8fd1\u539a\u5fb7\u91cc",
      "coordinates": [
        1.9928037103313954,
        0.38875769191540793,
        20.219961166381836
      ],
      "operators": {
        "GMB": [
          "20000219"
        ]
      }
    },
    {
      "stopId": 20000234,
      "nameEn": "LEI TUNG ESTATE ROAD, TUNG SING HOUSE",
      "nameTc": "\u5229\u6771\u90a8\u9053, \u6771\u6607\u6a13",
      "coordinates": [
        1.9924015864717357,
        0.38818709142305347,
        153.3000030517578
      ],
      "operators": {
        "GMB": [
          "20000234"
        ]
      }
    },
    {
      "stopId": 20000238,
      "nameEn": "YUE ON COURT ROAD, CHOI ON HOUSE",
      "nameTc": "\u6f01\u5b89\u82d1\u9053, \u5f69\u5b89\u95a3\u5c0d\u9762",
      "coordinates": [
        1.9924075205911924,
        0.38821735543228303,
        42.5
      ],
      "operators": {
        "GMB": [
          "20000238"
        ]
      }
    },
    {
      "stopId": 20000239,
      "nameEn": "YAN'S TOWER, WONG CHUK HANG ROAD",
      "nameTc": "\u9ec3\u7af9\u5751\u9053, \u7504\u6cbe\u8a18\u5927\u5ec8",
      "coordinates": [
        1.9925331319374588,
        0.38831004986885637,
        135.89999389648438
      ],
      "operators": {
        "GMB": [
          "20000239"
        ]
      }
    },
    {
      "stopId": 20000240,
      "nameEn": "WONG CHUK HANG ROAD, NEAR TONG BIN LANE",
      "nameTc": "\u9ec3\u7af9\u5751\u9053 49\u865f",
      "coordinates": [
        1.9926023866021776,
        0.3883247106345732,
        88.0
      ],
      "operators": {
        "GMB": [
          "20000240"
        ]
      }
    },
    {
      "stopId": 20000242,
      "nameEn": "CAUSEWAY ROAD, OUTSIDE VICTORIA PARK",
      "nameTc": "\u9ad8\u58eb\u5a01\u9053, \u7dad\u5712\u5916",
      "coordinates": [
        1.992985940158596,
        0.38887557145308765,
        4.999072074890137
      ],
      "operators": {
        "GMB": [
          "20000242"
        ]
      }
    },
    {
      "stopId": 20000243,
      "nameEn": "TIN HAU STATION PUBLIC TRANSPORT INTERCHANGE ",
      "nameTc": "\u5929\u540e\u7ad9\u516c\u5171\u904b\u8f38\u4ea4\u532f\u8655 ",
      "coordinates": [
        1.9930169372061113,
        0.3889059925419499,
        155.89999389648438
      ],
      "operators": {
        "GMB": [
          "20000243"
        ]
      }
    },
    {
      "stopId": 20000246,
      "nameEn": "STANLEY PLAZA (MA HANG)",
      "nameTc": "\u4f73\u7f8e\u9053, \u8d64\u67f1\u5ee3\u5834",
      "coordinates": [
        1.9933311662846405,
        0.3878138353092219,
        40.900001525878906
      ],
      "operators": {
        "GMB": [
          "20000246"
        ]
      }
    },
    {
      "stopId": 20000247,
      "nameEn": "CAPE ROAD, CHUN MA HOUSE",
      "nameTc": "\u74b0\u89d2\u9053, \u9f8d\u6b23\u82d1\u9f8d\u99ff\u95a3\u5916",
      "coordinates": [
        1.9932704113733788,
        0.38785041741034376,
        52.0
      ],
      "operators": {
        "GMB": [
          "20000247"
        ]
      }
    },
    {
      "stopId": 20000248,
      "nameEn": "CAPE ROAD, LUNG TAN COURT",
      "nameTc": "\u74b0\u89d2\u9053, \u9f8d\u9a30\u95a3",
      "coordinates": [
        1.9932595728787237,
        0.3878307126430887,
        82.19999694824219
      ],
      "operators": {
        "GMB": [
          "20000248"
        ]
      }
    },
    {
      "stopId": 20000249,
      "nameEn": "CAPE ROAD, KOON MA HOUSE",
      "nameTc": "\u74b0\u89d2\u9053, \u89c0\u99ac\u6a13",
      "coordinates": [
        1.993281232414741,
        0.38782504032301973,
        66.19999694824219
      ],
      "operators": {
        "GMB": [
          "20000249"
        ]
      }
    },
    {
      "stopId": 20000251,
      "nameEn": "DEEP WATER BAY, ISLAND ROAD",
      "nameTc": "\u9999\u5cf6\u9053, \u6df1\u6c34\u7063",
      "coordinates": [
        1.992930683034478,
        0.38826135518272575,
        7.800000190734863
      ],
      "operators": {
        "GMB": [
          "20000251"
        ]
      }
    },
    {
      "stopId": 20000253,
      "nameEn": "TUNG TAU WAN ROAD, STANLEY PRISON",
      "nameTc": "\u6771\u982d\u7063\u9053, \u8d64\u67f1\u76e3\u7344",
      "coordinates": [
        1.9934736898713585,
        0.3877315255816979,
        40.0
      ],
      "operators": {
        "GMB": [
          "20000253"
        ]
      }
    },
    {
      "stopId": 20000254,
      "nameEn": "FUNG HA ROAD, OUTSIDE HIU FUNG HOUSE",
      "nameTc": "\u5cf0\u971e\u9053, \u66c9\u5cf0\u6a13\u5916",
      "coordinates": [
        1.9937131839513171,
        0.38852064129640207,
        161.39999389648438
      ],
      "operators": {
        "GMB": [
          "20000254"
        ]
      }
    },
    {
      "stopId": 20000255,
      "nameEn": "CHAI WAN STATION PUBLIC TRANSPORT INTERCHANGE",
      "nameTc": "\u67f4\u7063\u7ad9\u516c\u5171\u904b\u8f38\u4ea4\u532f\u8655",
      "coordinates": [
        1.9938125979055106,
        0.3885970343577619,
        23.100000381469727
      ],
      "operators": {
        "GMB": [
          "20000255"
        ]
      }
    },
    {
      "stopId": 20000256,
      "nameEn": "CHAI WAN ROAD, OUTSIDE WINNER CENTRE",
      "nameTc": "\u67f4\u7063\u9053, \u6c38\u5229\u4e2d\u5fc3\u5916",
      "coordinates": [
        1.9938425652087675,
        0.3885680269855937,
        10.436614990234375
      ],
      "operators": {
        "GMB": [
          "20000256"
        ]
      }
    },
    {
      "stopId": 20000257,
      "nameEn": "SIU SAI WAN PHASE III",
      "nameTc": "\u5c0f\u897f\u7063\u9053, \u745e\u9f8d\u6a13\u5916",
      "coordinates": [
        1.99404406347091,
        0.38855076567929153,
        114.19999694824219
      ],
      "operators": {
        "GMB": [
          "20000257"
        ]
      }
    },
    {
      "stopId": 20000258,
      "nameEn": "CHAI WAN ROAD WESTBOUND, BUS BAY OUTSIDE HEI TSUI HOUSE",
      "nameTc": "\u67f4\u7063\u9053\u897f\u884c\u7dda, \u559c\u7fe0\u6a13\u5916\u5df4\u58eb\u7ad9",
      "coordinates": [
        1.9938461256804414,
        0.38856518209891294,
        11.185802459716797
      ],
      "operators": {
        "GMB": [
          "20000258"
        ]
      }
    },
    {
      "stopId": 20000260,
      "nameEn": "FUNG YIP STREET, OUTSIDE KAILEY INDUSTRIAL CENTRE",
      "nameTc": "\u8c50\u696d\u8857, \u555f\u529b\u5de5\u696d\u4e2d\u5fc3\u5916",
      "coordinates": [
        1.9939431834401449,
        0.38863592029349636,
        81.19999694824219
      ],
      "operators": {
        "GMB": [
          "20000260"
        ]
      }
    },
    {
      "stopId": 20000263,
      "nameEn": "PAMELA YOUDE NETHERSOLE EASTERN HOSPITAL, OUTSIDE MAIN BLOCK",
      "nameTc": "\u6771\u5340\u5c24\u5fb7\u592b\u4eba\u90a3\u6253\u7d20\u91ab\u9662",
      "coordinates": [
        1.9938090723404218,
        0.3886697098678149,
        63.400001525878906
      ],
      "operators": {
        "GMB": [
          "20000263"
        ]
      }
    },
    {
      "stopId": 20000264,
      "nameEn": "LEE CHUNG STREET, NEAR WAH HA ESTATE\t",
      "nameTc": "\u5229\u773e\u8857\u8fd1\u83ef\u5ec8\u90a8",
      "coordinates": [
        1.9938014277982978,
        0.38859940800554454,
        47.29999923706055
      ],
      "operators": {
        "GMB": [
          "20000264"
        ]
      }
    },
    {
      "stopId": 20000266,
      "nameEn": "TIN HAU TEMPLE ROAD, OUTSIDE PACIFIC PALISADES",
      "nameTc": "\u5929\u540e\u5edf\u9053, \u5bf6\u99ac\u5c71\u82b1\u5712\u5916",
      "coordinates": [
        1.9932242474146635,
        0.3890010082664284,
        115.4000015258789
      ],
      "operators": {
        "GMB": [
          "20000266"
        ]
      }
    },
    {
      "stopId": 20000267,
      "nameEn": "KING'S ROAD, NEAR FORTRESS HILL STATION",
      "nameTc": "\u82f1\u7687\u9053, \u8fd1\u70ae\u53f0\u5c71\u7ad9\u5165\u53e3",
      "coordinates": [
        1.9930594534266899,
        0.3890074834379534,
        126.80000305175781
      ],
      "operators": {
        "GMB": [
          "20000267"
        ]
      }
    },
    {
      "stopId": 20000268,
      "nameEn": "NO.7-9 NGAN MOK STREET",
      "nameTc": "\u9280\u5e55\u88577-9\u865f",
      "coordinates": [
        1.993030655494032,
        0.3889201820687686,
        100.0999984741211
      ],
      "operators": {
        "GMB": [
          "20000268"
        ]
      }
    },
    {
      "stopId": 20000270,
      "nameEn": "TAI ON STREET, ENTRANCE TO SAI WAN HO MARKET",
      "nameTc": "\u592a\u5b89\u8857, \u897f\u7063\u6cb3\u8857\u5e02\u5165\u53e3",
      "coordinates": [
        1.9935575180353318,
        0.38889990134286045,
        25.600000381469727
      ],
      "operators": {
        "GMB": [
          "20000270"
        ]
      }
    },
    {
      "stopId": 20000271,
      "nameEn": "YIU HING ROAD, OUTSIDE YIU HEI HOUSE",
      "nameTc": "\u8000\u8208\u9053, \u8000\u71b9\u95a3\u5916",
      "coordinates": [
        1.9934967107641923,
        0.38887658374405376,
        150.1999969482422
      ],
      "operators": {
        "GMB": [
          "20000271"
        ]
      }
    },
    {
      "stopId": 20000272,
      "nameEn": "WAH KWAI ESTATE BUS TERMINUS",
      "nameTc": "\u83ef\u8cb4\u90a8\u5df4\u58eb\u7e3d\u7ad9",
      "coordinates": [
        1.9921144099966126,
        0.38833158723182604,
        17.799999237060547
      ],
      "operators": {
        "GMB": [
          "20000272"
        ]
      }
    },
    {
      "stopId": 20000273,
      "nameEn": "NO. 53 SHEK PAI WAN ROAD",
      "nameTc": "\u77f3\u6392\u7063\u9053 53 \u865f",
      "coordinates": [
        1.9922612096399979,
        0.388328934331363,
        96.5
      ],
      "operators": {
        "GMB": [
          "20000273"
        ]
      }
    },
    {
      "stopId": 20000274,
      "nameEn": "TIN WAN ESTATE ROAD, OUTSIDE TIN HONG HOUSE",
      "nameTc": "\u7530\u7063\u90a8\u9053, \u7530\u5eb7\u6a13\u5916",
      "coordinates": [
        1.992297093609419,
        0.3883744874248401,
        142.5
      ],
      "operators": {
        "GMB": [
          "20000274"
        ]
      }
    },
    {
      "stopId": 20000275,
      "nameEn": "TIN WAN ESTATE ROAD, OUTSIDE TIN CHAK HOUSE",
      "nameTc": "\u7530\u7063\u90a8\u9053, \u7530\u6fa4\u6a13\u5916",
      "coordinates": [
        1.9923084382495568,
        0.3883817479945284,
        147.1999969482422
      ],
      "operators": {
        "GMB": [
          "20000275"
        ]
      }
    },
    {
      "stopId": 20000276,
      "nameEn": "TIN WAN ESTATE ROAD, OUTSIDE HUNG CHAK HOUSE",
      "nameTc": "\u7530\u7063\u90a8\u9053, \u9d3b\u6fa4\u95a3\u5916",
      "coordinates": [
        1.9922996417901269,
        0.38835684214610233,
        118.5999984741211
      ],
      "operators": {
        "GMB": [
          "20000276"
        ]
      }
    },
    {
      "stopId": 20000277,
      "nameEn": "WU NAM STREET, OUTSIDE PING ON HOUSE",
      "nameTc": "\u6e56\u5357\u8857, \u5e73\u5b89\u6a13\u5916",
      "coordinates": [
        1.9923804156279092,
        0.38829584288874525,
        26.299999237060547
      ],
      "operators": {
        "GMB": [
          "20000277"
        ]
      }
    },
    {
      "stopId": 20000281,
      "nameEn": "CAPE ROAD, OPPOSITE TO KOON MA HOUSE",
      "nameTc": "\u74b0\u89d2\u9053, \u89c0\u99ac\u6a13\u5c0d\u9762",
      "coordinates": [
        1.9932793823657338,
        0.38782313791413503,
        44.0
      ],
      "operators": {
        "GMB": [
          "20000281"
        ]
      }
    },
    {
      "stopId": 20000282,
      "nameEn": "CAPE ROAD, OPPOSITE TO CAPE ROAD, LUNG TAN COURTE LEUNG MA HOUSE",
      "nameTc": "\u74b0\u89d2\u9053, \u9f8d\u9a30\u95a3\u5c0d\u9762",
      "coordinates": [
        1.993264145641364,
        0.3878275535971426,
        52.0
      ],
      "operators": {
        "GMB": [
          "20000282"
        ]
      }
    },
    {
      "stopId": 20000283,
      "nameEn": "CAPE ROAD, OPPOSITE CHUN MA HOUSE",
      "nameTc": "\u74b0\u89d2\u9053, \u99ff\u99ac\u6a13\u5c0d\u9762",
      "coordinates": [
        1.9932704113733788,
        0.38785198820667055,
        56.0
      ],
      "operators": {
        "GMB": [
          "20000283"
        ]
      }
    },
    {
      "stopId": 20000284,
      "nameEn": "CENTRAL FERRY PIERS",
      "nameTc": "\u4e2d\u74b0\u78bc\u982d",
      "coordinates": [
        1.9924702302712167,
        0.38897659111019306,
        5.345600128173828
      ],
      "operators": {
        "GMB": [
          "20000284"
        ]
      }
    },
    {
      "stopId": 20000289,
      "nameEn": "NO.68 BELCHER'S STREET ",
      "nameTc": "\u5351\u8def\u4e4d\u885768\u865f",
      "coordinates": [
        1.9919206784496413,
        0.3889052420503715,
        154.60000610351562
      ],
      "operators": {
        "GMB": [
          "20000289"
        ]
      }
    },
    {
      "stopId": 20000294,
      "nameEn": "CONNAUGHT ROAD CENTRAL OUTSIDE SHUN TAK CENTRE",
      "nameTc": "\u5e72\u8afe\u9053\u4e2d, \u4fe1\u5fb7\u4e2d\u5fc3\u5916",
      "coordinates": [
        1.9923105326446593,
        0.38899659258342095,
        150.8000030517578
      ],
      "operators": {
        "GMB": [
          "20000294"
        ]
      }
    },
    {
      "stopId": 20000295,
      "nameEn": "CONNAUGHT PLACE, OUTSIDE EXCHANGE SQUARE",
      "nameTc": "\u5eb7\u6a02\u5ee3\u5834, \u4ea4\u6613\u5ee3\u5834\u5916",
      "coordinates": [
        1.9924431427612257,
        0.3889157489324686,
        185.89999389648438
      ],
      "operators": {
        "GMB": [
          "20000295"
        ]
      }
    },
    {
      "stopId": 20000296,
      "nameEn": "PEDDER STREET OUTSIDE WORLD WIDE HOUSE",
      "nameTc": "\u7562\u6253\u8857\u74b0\u7403\u5927\u5ec8\u5916",
      "coordinates": [
        1.9924319726540132,
        0.3889009485404117,
        109.0
      ],
      "operators": {
        "GMB": [
          "20000296"
        ]
      }
    },
    {
      "stopId": 20000297,
      "nameEn": "QUEEN'S ROAD WEST NO.62",
      "nameTc": "\u7687\u540e\u5927\u9053\u897f62\u865f\u5916",
      "coordinates": [
        1.992246339434771,
        0.38897215797389306,
        78.9000015258789
      ],
      "operators": {
        "GMB": [
          "20000297"
        ]
      }
    },
    {
      "stopId": 20000298,
      "nameEn": "QUEEN'S ROAD WEST, NEAR CENTRE STREET",
      "nameTc": "\u7687\u540e\u5927\u9053\u897f, \u8fd1\u6b63\u8857",
      "coordinates": [
        1.9921625112707977,
        0.3889790694777309,
        87.4000015258789
      ],
      "operators": {
        "GMB": [
          "20000298"
        ]
      }
    },
    {
      "stopId": 20000299,
      "nameEn": "QUEEN'S ROAD WEST, NEAR WESTERN STREET",
      "nameTc": "\u7687\u540e\u5927\u9053\u897f, \u8fd1\u897f\u908a\u8857",
      "coordinates": [
        1.9921391413121132,
        0.38897985487589426,
        110.0999984741211
      ],
      "operators": {
        "GMB": [
          "20000299"
        ]
      }
    },
    {
      "stopId": 20000300,
      "nameEn": "POK FU LAM ROAD, OUTSIDE LI SING PRIMARY SCHOOL",
      "nameTc": "\u8584\u6276\u6797\u9053, \u674e\u965e\u5c0f\u5b78\u5916",
      "coordinates": [
        1.9921161029659868,
        0.3889535353107742,
        45.599998474121094
      ],
      "operators": {
        "GMB": [
          "20000300"
        ]
      }
    },
    {
      "stopId": 20000302,
      "nameEn": "ROBINSON ROAD, OPPOSITE SERENE COURT",
      "nameTc": "\u7f85\u4fbf\u81e3\u9053, \u79c0\u9e97\u95a3\u5c0d\u9762",
      "coordinates": [
        1.9921736988313028,
        0.3889068826598684,
        201.10000610351562
      ],
      "operators": {
        "GMB": [
          "20000302"
        ]
      }
    },
    {
      "stopId": 20000303,
      "nameEn": "BONHAM ROAD, NEAR CENTRE STREET",
      "nameTc": "\u822c\u54b8\u9053, \u8fd1\u6b63\u8857",
      "coordinates": [
        1.9921560884591503,
        0.38893918870432287,
        89.80000305175781
      ],
      "operators": {
        "GMB": [
          "20000303"
        ]
      }
    },
    {
      "stopId": 20000304,
      "nameEn": "CAINE ROAD, NEAR CASTLE ROAD",
      "nameTc": "\u5805\u9053\uff0c\u8fd1\u885b\u57ce\u9053",
      "coordinates": [
        1.992309520353693,
        0.3889001282356632,
        168.10000610351562
      ],
      "operators": {
        "GMB": [
          "20000304"
        ]
      }
    },
    {
      "stopId": 20000305,
      "nameEn": "CAINE ROAD, NEAR AVON COURT",
      "nameTc": "\u5805\u905319\u865f",
      "coordinates": [
        1.9923630496018518,
        0.38886167863224175,
        182.5
      ],
      "operators": {
        "GMB": [
          "20000305"
        ]
      }
    },
    {
      "stopId": 20000307,
      "nameEn": "QUEEN'S ROAD EAST, NEAR QUEENSWAY",
      "nameTc": "\u7687\u540e\u5927\u9053\u6771, \u592a\u53e4\u5ee3\u5834\u4e09\u5ea7\u5916",
      "coordinates": [
        1.99260641831275,
        0.3888171029231458,
        63.20000076293945
      ],
      "operators": {
        "GMB": [
          "20000307"
        ]
      }
    },
    {
      "stopId": 20000308,
      "nameEn": "QUEEN'S ROAD EAST, NEAR AMOY STREET",
      "nameTc": "\u7687\u540e\u5927\u9053\u6771, \u8fd1\u5ec8\u9580\u8857",
      "coordinates": [
        1.9926739800080946,
        0.3887740805570841,
        161.1999969482422
      ],
      "operators": {
        "GMB": [
          "20000308"
        ]
      }
    },
    {
      "stopId": 20000309,
      "nameEn": "QUEEN'S ROAD EAST, NEAR WAN CHAI ROAD",
      "nameTc": "\u7687\u540e\u5927\u9053\u6771, \u8fd1\u7063\u4ed4\u9053",
      "coordinates": [
        1.9927110682546993,
        0.3887633642354769,
        146.60000610351562
      ],
      "operators": {
        "GMB": [
          "20000309"
        ]
      }
    },
    {
      "stopId": 20000310,
      "nameEn": "QUEEN'S ROAD EAST, OUTSIDE ST JOSEPH'S PRIMARY SCHOOL",
      "nameTc": "\u7687\u540e\u5927\u9053\u6771, \u8056\u82e5\u745f\u5c0f\u5b78\u5916",
      "coordinates": [
        1.9927595011414423,
        0.38877470887561494,
        37.0
      ],
      "operators": {
        "GMB": [
          "20000310"
        ]
      }
    },
    {
      "stopId": 20000311,
      "nameEn": "PENNINGTON STREET LEE GARDENS TWO",
      "nameTc": "\u908a\u5be7\u9813\u8857\u5229\u5712\u4e8c\u671f\u5916",
      "coordinates": [
        1.9929215724157827,
        0.38883380572408743,
        125.0
      ],
      "operators": {
        "GMB": [
          "20000311"
        ]
      }
    },
    {
      "stopId": 20000312,
      "nameEn": "ELECTRIC ROAD, NEAR MUNICIPAL SERVICES BUILDING",
      "nameTc": "\u96fb\u6c23\u9053, \u8fd1\u5e02\u653f\u5927\u5ec8",
      "coordinates": [
        1.993056399100499,
        0.38902514616998357,
        77.5999984741211
      ],
      "operators": {
        "GMB": [
          "20000312"
        ]
      }
    },
    {
      "stopId": 20000313,
      "nameEn": "ELECTRIC ROAD, NEAR CITY GARDEN",
      "nameTc": "\u96fb\u6c23\u9053, \u8fd1\u57ce\u5e02\u82b1\u5712",
      "coordinates": [
        1.993068948017821,
        0.38903900408424436,
        85.0
      ],
      "operators": {
        "GMB": [
          "20000313"
        ]
      }
    },
    {
      "stopId": 20000314,
      "nameEn": "JAVA ROAD, NEAR SHU KUK STREET",
      "nameTc": "\u6e23\u83ef\u9053, \u8fd1\u66f8\u5c40\u8857",
      "coordinates": [
        1.993177175884737,
        0.38907666828950244,
        105.9000015258789
      ],
      "operators": {
        "GMB": [
          "20000314"
        ]
      }
    },
    {
      "stopId": 20000315,
      "nameEn": "KING'S ROAD, NEAR NORTH POINT MTR STATION",
      "nameTc": "\u82f1\u7687\u9053, \u8fd1\u6e2f\u9435\u5317\u89d2\u7ad9",
      "coordinates": [
        1.9931861468770924,
        0.3890552356462879,
        82.5999984741211
      ],
      "operators": {
        "GMB": [
          "20000315"
        ]
      }
    },
    {
      "stopId": 20000318,
      "nameEn": "KING'S ROAD, NEAR NORTH POINT CENTRE",
      "nameTc": "\u82f1\u7687\u9053, \u8fd1\u5317\u89d2\u4e2d\u5fc3\u5927\u5ec8",
      "coordinates": [
        1.9930775699443257,
        0.3890279736033717,
        88.19999694824219
      ],
      "operators": {
        "GMB": [
          "20000318"
        ]
      }
    },
    {
      "stopId": 20000322,
      "nameEn": "LEIGHTON ROAD, OUTSIDE CRAIGENGOWER CRICKET CLUB",
      "nameTc": "\u79ae\u9813\u9053, \u7d00\u5229\u83ef\u6728\u7403\u6703\u5c0d\u958b\u5df4\u58eb\u7ad9",
      "coordinates": [
        1.9928567159807784,
        0.38880701492006925,
        5.900000095367432
      ],
      "operators": {
        "GMB": [
          "20000322"
        ]
      }
    },
    {
      "stopId": 20000324,
      "nameEn": "QUEENSWAY, OUTSIDE PACIFIC PLACE",
      "nameTc": "\u91d1\u9418\u9053, \u592a\u53e4\u5ee3\u5834\u5916",
      "coordinates": [
        1.9925596783953816,
        0.3888245031191742,
        164.3000030517578
      ],
      "operators": {
        "GMB": [
          "20000324"
        ]
      }
    },
    {
      "stopId": 20000325,
      "nameEn": "ROBINSON ROAD, NEAR RIGHT MANSION",
      "nameTc": "\u7f85\u4fbf\u81e3\u9053, \u8fd1\u5229\u5fb7\u5927\u5ec8",
      "coordinates": [
        1.9923217376584572,
        0.38884528999056556,
        182.3000030517578
      ],
      "operators": {
        "GMB": [
          "20000325"
        ]
      }
    },
    {
      "stopId": 20000326,
      "nameEn": "WU NAM STREET, OUTSIDE ON TAI BUILDING",
      "nameTc": "\u6e56\u5357\u8857, \u5b89\u6cf0\u5927\u5ec8\u5916",
      "coordinates": [
        1.992390747977081,
        0.3882966457402011,
        74.4000015258789
      ],
      "operators": {
        "GMB": [
          "20000326"
        ]
      }
    },
    {
      "stopId": 20000327,
      "nameEn": "NO.178 ABERDEEN MAIN ROAD",
      "nameTc": "\u9999\u6e2f\u4ed4\u5927\u9053178\u865f",
      "coordinates": [
        1.9923939593829045,
        0.3883177642241502,
        77.9000015258789
      ],
      "operators": {
        "GMB": [
          "20000327"
        ]
      }
    },
    {
      "stopId": 20000328,
      "nameEn": "ABERDEEN PRAYA ROAD, OUTSIDE ABERDEEN WHOLESALE FISH MARKET",
      "nameTc": "\u9999\u6e2f\u4ed4\u6d77\u508d\u9053,\u9999\u6e2f\u4ed4\u9b5a\u985e\u6279\u767c\u5e02\u5834\u5916",
      "coordinates": [
        1.9923399414425553,
        0.3882990019346913,
        4.085477352142334
      ],
      "operators": {
        "GMB": [
          "20000328"
        ]
      }
    },
    {
      "stopId": 20000329,
      "nameEn": "ABERDEEN ROAD NEAR ITS JUNCTION WITH TIN WAN PRAYA ROAD",
      "nameTc": "\u7530\u7063\u8857, \u9999\u6e2f\u4ed4\u6d77\u508d\u9053",
      "coordinates": [
        1.9922620648513314,
        0.3883114286789655,
        6.1834211349487305
      ],
      "operators": {
        "GMB": [
          "20000329"
        ]
      }
    },
    {
      "stopId": 20000330,
      "nameEn": "VICTORIA ROAD, OPPOSITE BAGUIO VILLA PETROL STATION",
      "nameTc": "\u57df\u591a\u5229\u9053, \u78a7\u7464\u7063\u6cb9\u7ad9\u5c0d\u9762",
      "coordinates": [
        1.9919981885217222,
        0.38854338293655555,
        57.926475524902344
      ],
      "operators": {
        "GMB": [
          "20000330"
        ]
      }
    },
    {
      "stopId": 20000331,
      "nameEn": "SHA WAN DRIVE, OPPOSITE MACLEHOSE MEDICAL REHABILITATION CENTRE",
      "nameTc": "\u6c99\u7063\u5f91, \u9ea5\u7406\u6d69\u5fa9\u5eb7\u9662\u5c0d\u9762",
      "coordinates": [
        1.991835070049831,
        0.38868140357380326,
        46.099998474121094
      ],
      "operators": {
        "GMB": [
          "20000331"
        ]
      }
    },
    {
      "stopId": 20000332,
      "nameEn": "VICTORIA ROAD, OUTSIDE ENGLISH SCHOOLS FOUNDATION WEST ISLAND SCHOOL",
      "nameTc": "\u57df\u591a\u5229\u9053, \u82f1\u57fa\u5b78\u6821\u5354\u6703\u897f\u5cf6\u4e2d\u5b78\u5916",
      "coordinates": [
        1.9918653689656456,
        0.388735002635132,
        69.5
      ],
      "operators": {
        "GMB": [
          "20000332"
        ]
      }
    },
    {
      "stopId": 20000334,
      "nameEn": "VICTORIA ROAD, OPPOSITE ENGLISH SCHOOLS FOUNDATION WEST ISLAND SCHOOL",
      "nameTc": "\u57df\u591a\u5229\u9053, \u82f1\u57fa\u5b78\u6821\u5354\u6703\u897f\u5cf6\u4e2d\u5b78\u5c0d\u9762",
      "coordinates": [
        1.9918821241264648,
        0.38874116364739153,
        64.0
      ],
      "operators": {
        "GMB": [
          "20000334"
        ]
      }
    },
    {
      "stopId": 20000335,
      "nameEn": "VICTORIA ROAD, OUTSIDE BLOCK 19, BAGUIO VILLA",
      "nameTc": "\u57df\u591a\u5229\u9053,\u78a7\u7464\u7063\u7b2c\u5341\u4e5d\u5ea7\u5916",
      "coordinates": [
        1.9919873500270677,
        0.3885649726594027,
        163.10000610351562
      ],
      "operators": {
        "GMB": [
          "20000335"
        ]
      }
    },
    {
      "stopId": 20000336,
      "nameEn": "VICTORIA ROAD, OUTSIDE BAGUIO VILLA TENNIS COURT",
      "nameTc": "\u57df\u591a\u5229\u9053,\u78a7\u7464\u7063\u7db2\u7403\u5834\u5916",
      "coordinates": [
        1.9920063217560366,
        0.3885421262994941,
        79.5999984741211
      ],
      "operators": {
        "GMB": [
          "20000336"
        ]
      }
    },
    {
      "stopId": 20000338,
      "nameEn": "VICTORIA ROAD, OUTSIDE BLOCK 27, BAGUIO VILLA",
      "nameTc": "\u57df\u591a\u5229\u9053,\u78a7\u7464\u7063\u7b2c\u4e8c\u5341\u4e03\u5ea7\u5916",
      "coordinates": [
        1.9920107199857517,
        0.38853849601464996,
        160.89999389648438
      ],
      "operators": {
        "GMB": [
          "20000338"
        ]
      }
    },
    {
      "stopId": 20000340,
      "nameEn": "ABERDEEN MAIN ROAD, OUTSIDE ST PETER'S SECONDARY SCHOOL",
      "nameTc": "\u9999\u6e2f\u4ed4\u5927\u9053, \u8056\u4f2f\u591a\u797f\u4e2d\u5b78\u5916",
      "coordinates": [
        1.9923573772817826,
        0.38833287877547257,
        17.57758331298828
      ],
      "operators": {
        "GMB": [
          "20000340"
        ]
      }
    },
    {
      "stopId": 20000341,
      "nameEn": "TUNG SING TUNG SING ROAD, OUTSIDE GOODVIEW CENTRE",
      "nameTc": "\u6771\u52dd\u905310\u865f\u5c0d\u9762",
      "coordinates": [
        1.9923849883905496,
        0.3883016897417394,
        83.30000305175781
      ],
      "operators": {
        "GMB": [
          "20000341"
        ]
      }
    },
    {
      "stopId": 20000342,
      "nameEn": "NAM LONG SHAN ROAD, OUTSIDE SAN WUI COMMERCIAL SOCIETY OF HONG KONG CHAN PAK SHA SCHOOL",
      "nameTc": "\u5357\u6717\u5c71\u9053, \u65b0\u6703\u5546\u6703\u9673\u767d\u6c99\u7d00\u5ff5\u4e2d\u5b78\u5916",
      "coordinates": [
        1.9925844446174674,
        0.3882611981030931,
        32.70000076293945
      ],
      "operators": {
        "GMB": [
          "20000342"
        ]
      }
    },
    {
      "stopId": 20000343,
      "nameEn": "SHUM WAN ROAD, OUTSIDE BLOCK 3, SOUTH WAVE COURT",
      "nameTc": "\u6df1\u7063\u9053, \u5357\u6fe4\u95a3\u7b2c3\u5ea7\u5916",
      "coordinates": [
        1.9925666597123897,
        0.38824337829143024,
        27.299999237060547
      ],
      "operators": {
        "GMB": [
          "20000343"
        ]
      }
    },
    {
      "stopId": 20000347,
      "nameEn": "SANDY BAY ROAD, NEAR ENGLISH SCHOOLS FOUNDATION WEST ISLAND SCHOOL",
      "nameTc": "\u5927\u53e3\u74b0\u9053, \u8fd1\u82f1\u57fa\u5b78\u6821\u5354\u6703\u897f\u5cf6\u4e2d\u5b78",
      "coordinates": [
        1.9918728215215515,
        0.38873044732578427,
        64.69999694824219
      ],
      "operators": {
        "GMB": [
          "20000347"
        ]
      }
    },
    {
      "stopId": 20000348,
      "nameEn": "SANDY BAY ROAD, THE DUCHESS OF KENT CHILDREN\u2019S HOSPITAL",
      "nameTc": "\u5927\u53e3\u74b0\u9053, \u5927\u53e3\u74b0\u6839\u5fb7\u516c\u7235\u592b\u4eba\u5152\u7ae5\u91ab\u9662",
      "coordinates": [
        1.991853867245875,
        0.3887137270715502,
        31.299999237060547
      ],
      "operators": {
        "GMB": [
          "20000348"
        ]
      }
    },
    {
      "stopId": 20000349,
      "nameEn": "THE DUCHESS OF KENT CHILDRENS HOSPITAL, SANDY BAY ROAD",
      "nameTc": "\u5927\u53e3\u74b0\u9053, \u5927\u53e3\u74b0\u6839\u5fb7\u516c\u7235\u592b\u4eba\u5152\u7ae5\u91ab\u9662",
      "coordinates": [
        1.9918376007772465,
        0.3887048957055351,
        13.199999809265137
      ],
      "operators": {
        "GMB": [
          "20000349"
        ]
      }
    },
    {
      "stopId": 20000352,
      "nameEn": "SHEUNG ON STREET, OPPOSITE CHAI WAN FIRE STATION",
      "nameTc": "\u5e38\u5b89\u885777\u865f",
      "coordinates": [
        1.9939262537464006,
        0.38863907933944236,
        82.4000015258789
      ],
      "operators": {
        "GMB": [
          "20000352"
        ]
      }
    },
    {
      "stopId": 20000356,
      "nameEn": "SOUTH HORIZONS BUS TERMINUS",
      "nameTc": "\u6d77\u6021\u534a\u5cf6\u5df4\u58eb\u7e3d\u7ad9",
      "coordinates": [
        1.9922801988222596,
        0.3882085240662679,
        121.5999984741211
      ],
      "operators": {
        "GMB": [
          "20000356"
        ]
      }
    },
    {
      "stopId": 20000358,
      "nameEn": "YI NAM ROAD, OUTSIDE MARINA SQUARE EAST CENTRE",
      "nameTc": "\u6021\u5357\u8def, \u6d77\u6021\u6771\u5546\u5834\u5916",
      "coordinates": [
        1.992273933090245,
        0.38822206782126345,
        37.70000076293945
      ],
      "operators": {
        "GMB": [
          "20000358"
        ]
      }
    },
    {
      "stopId": 20000359,
      "nameEn": "SOUTH HORIZONS DRIVE, OUTSIDE LEI CHAK HOUSE",
      "nameTc": "\u9d28\u8137\u6d32\u6a4b\u9053, \u5229\u6fa4\u6a13\u5916",
      "coordinates": [
        1.9922893268942476,
        0.3882354719499187,
        23.830047607421875
      ],
      "operators": {
        "GMB": [
          "20000359"
        ]
      }
    },
    {
      "stopId": 20000360,
      "nameEn": "AP LEI CHAU BRIDGE ROAD, OUTSIDE AP LEI CHAU ESTATE BUS TERMINUS",
      "nameTc": "\u9d28\u8137\u6d32\u6a4b\u9053, \u9d28\u8137\u6d32\u90a8\u5df4\u58eb\u7e3d\u7ad9\u5916",
      "coordinates": [
        1.9923042320060593,
        0.38823280159616314,
        23.99700164794922
      ],
      "operators": {
        "GMB": [
          "20000360"
        ]
      }
    },
    {
      "stopId": 20000361,
      "nameEn": "OCEAN COURT, ABERDEEN PRAYA ROAD",
      "nameTc": "\u9999\u6e2f\u4ed4\u6d77\u508d\u9053, \u9038\u6e2f\u5c45\u5916",
      "coordinates": [
        1.992455936024643,
        0.3882933296146223,
        101.69999694824219
      ],
      "operators": {
        "GMB": [
          "20000361"
        ]
      }
    },
    {
      "stopId": 20000362,
      "nameEn": "WAH LAM PATH",
      "nameTc": "\u83ef\u6797\u5f91",
      "coordinates": [
        1.9921011978541752,
        0.38837335296082626,
        52.63945388793945
      ],
      "operators": {
        "GMB": [
          "20000362"
        ]
      }
    },
    {
      "stopId": 20000363,
      "nameEn": "WAH KING STREET, OUTSIDE WAH CHUI HOUSE",
      "nameTc": "\u83ef\u666f\u8857, \u83ef\u7fe0\u6a13\u5916",
      "coordinates": [
        1.992058350021039,
        0.38840422783529405,
        126.0
      ],
      "operators": {
        "GMB": [
          "20000363"
        ]
      }
    },
    {
      "stopId": 20000366,
      "nameEn": "QUEEN MARY HOSPITAL, OUTSIDE BLOCK K",
      "nameTc": "\u746a\u9e97\u91ab\u9662, K\u5ea7\u5916",
      "coordinates": [
        1.9919622347391315,
        0.38870082908837794,
        253.8000030517578
      ],
      "operators": {
        "GMB": [
          "20000366"
        ]
      }
    },
    {
      "stopId": 20000367,
      "nameEn": "POK FU LAM VILLAGE, POK FU LAM ROAD",
      "nameTc": "\u8584\u6276\u6797\u9053, \u8584\u6276\u6797\u6751",
      "coordinates": [
        1.9920583151144535,
        0.3885218106670009,
        156.5
      ],
      "operators": {
        "GMB": [
          "20000367"
        ]
      }
    },
    {
      "stopId": 20000368,
      "nameEn": "POK FU LAM ROAD, OUTSIDE YU CHUN KEUNG MEMORIAL COLLEGE NO.2",
      "nameTc": "\u8584\u6276\u6797\u9053, \u4f59\u632f\u5f37\u7d00\u5ff5\u7b2c\u4e8c\u4e2d\u5b78\u5916",
      "coordinates": [
        1.9920764490853817,
        0.3884505663269345,
        126.30000305175781
      ],
      "operators": {
        "GMB": [
          "20000368"
        ]
      }
    },
    {
      "stopId": 20000369,
      "nameEn": "SHEK PAI WAN ROAD, OUTSIDE MAN KING BUILDING",
      "nameTc": "\u77f3\u6392\u7063\u9053, \u842c\u666f\u6a13\u5916",
      "coordinates": [
        1.9922557816660242,
        0.38833097636658787,
        104.9000015258789
      ],
      "operators": {
        "GMB": [
          "20000369"
        ]
      }
    },
    {
      "stopId": 20000370,
      "nameEn": "SHEK PAI WAN ROAD, NEAR TIN WAN STREET",
      "nameTc": "\u77f3\u6392\u7063\u9053, \u7530\u7063\u8857",
      "coordinates": [
        1.9922681560504207,
        0.3883245186483555,
        93.9000015258789
      ],
      "operators": {
        "GMB": [
          "20000370"
        ]
      }
    },
    {
      "stopId": 20000378,
      "nameEn": "JAVA ROAD MUNICIPAL BUILDING COMPLEX, JAVA ROAD",
      "nameTc": "\u6e23\u83ef\u9053, \u6e23\u83ef\u9053\u5e02\u653f\u5927\u5ec8",
      "coordinates": [
        1.9931582041557678,
        0.38907303800465826,
        119.9000015258789
      ],
      "operators": {
        "GMB": [
          "20000378"
        ]
      }
    },
    {
      "stopId": 20000380,
      "nameEn": "YIU HUNG ROAD, OPPOSITE HING TUNG SHOPPING CENTRE",
      "nameTc": "\u8000\u8208\u9053, \u8208\u6771\u5546\u5834\u5c0d\u9762",
      "coordinates": [
        1.9935302385391227,
        0.38887122558325016,
        54.70000076293945
      ],
      "operators": {
        "GMB": [
          "20000380"
        ]
      }
    },
    {
      "stopId": 20000383,
      "nameEn": "YIU HING ROAD, OUTSIDE YIU WAH HOUSE",
      "nameTc": "\u8000\u8208\u9053, \u8000\u83ef\u6a13\u5916",
      "coordinates": [
        1.9935331183323888,
        0.3888475763718857,
        77.80668640136719
      ],
      "operators": {
        "GMB": [
          "20000383"
        ]
      }
    },
    {
      "stopId": 20000394,
      "nameEn": "WAN TSUI ROAD, OUTSIDE FOOK TSUI HOUSE",
      "nameTc": "\u74b0\u7fe0\u9053, \u798f\u7fe0\u6a13\u5916",
      "coordinates": [
        1.9937958252913988,
        0.38854724011420244,
        26.5
      ],
      "operators": {
        "GMB": [
          "20000394"
        ]
      }
    },
    {
      "stopId": 20000396,
      "nameEn": "CHAI WAN ROAD, OUTSIDE HING WAH ESTATE YU HING HOUSE",
      "nameTc": "\u67f4\u7063\u9053, \u8208\u83ef\u90a8\u88d5\u8208\u6a13\u5916",
      "coordinates": [
        1.9937702736711498,
        0.3885836651356916,
        39.57323455810547
      ],
      "operators": {
        "GMB": [
          "20000396"
        ]
      }
    },
    {
      "stopId": 20000398,
      "nameEn": "CHAI WAN ROAD, SHAU KEI WAN PRIMARY SCHOOL",
      "nameTc": "\u67f4\u7063\u9053, \u7b72\u7b95\u7063\u5b98\u7acb\u4e2d\u5b78\u5916",
      "coordinates": [
        1.9937384912254708,
        0.3887200102568574,
        98.5
      ],
      "operators": {
        "GMB": [
          "20000398"
        ]
      }
    },
    {
      "stopId": 20000409,
      "nameEn": "FIFE STREET NEAR SAI YEUNG CHOI STREET SOUTH",
      "nameTc": "\u5feb\u5bcc\u8857\u8fd1\u897f\u6d0b\u83dc\u5357\u8857",
      "coordinates": [
        1.992641272537912,
        0.3895651335872581,
        74.5
      ],
      "operators": {
        "GMB": [
          "20000409"
        ]
      }
    },
    {
      "stopId": 20000411,
      "nameEn": "MIDDLE ROAD CHILDREN'S PLAYGROUND",
      "nameTc": "\u4e2d\u9593\u9053\u5152\u7ae5\u904a\u6a02\u5834",
      "coordinates": [
        1.9927183462776803,
        0.38912382708589127,
        14.600000381469727
      ],
      "operators": {
        "GMB": [
          "20000411"
        ]
      }
    },
    {
      "stopId": 20000418,
      "nameEn": "WHAMPOA GARDEN PUBLIC TRANSPORT INTERCHANGE",
      "nameTc": "\u9ec3\u57d4\u82b1\u5712\u516c\u5171\u904b\u8f38\u4ea4\u532f\u8655",
      "coordinates": [
        1.9930069713760825,
        0.3892984472775533,
        32.400001525878906
      ],
      "operators": {
        "GMB": [
          "20000418"
        ]
      }
    },
    {
      "stopId": 20000420,
      "nameEn": "NO.48 WUHU STREET",
      "nameTc": "\u856a\u6e56\u885748\u865f",
      "coordinates": [
        1.992923300291742,
        0.38933550061757316,
        48.0
      ],
      "operators": {
        "GMB": [
          "20000420"
        ]
      }
    },
    {
      "stopId": 20000433,
      "nameEn": "TAU HANG TUNG ROAD, OUTSIDE TAI HANG TUNG RECREATION GROUND",
      "nameTc": "\u5927\u5751\u6771\u9053,\u5927\u5751\u6771\u904a\u6a02\u5834\u5916",
      "coordinates": [
        1.9926805598993746,
        0.3896997508324644,
        30.299999237060547
      ],
      "operators": {
        "GMB": [
          "20000433"
        ]
      }
    },
    {
      "stopId": 20000440,
      "nameEn": "NO.187 MA TAU WAI ROAD",
      "nameTc": "\u99ac\u982d\u570d\u9053\u8fd1\u99ac\u5751\u6d8c\u9053",
      "coordinates": [
        1.9929509288538008,
        0.38955111859336455,
        38.70000076293945
      ],
      "operators": {
        "GMB": [
          "20000440"
        ]
      }
    },
    {
      "stopId": 20000443,
      "nameEn": "MA TAU WAI ROAD, OUTSIDE HUNG HOM MARKET",
      "nameTc": "\u99ac\u982d\u570d\u9053, \u7d05\u78e1\u8857\u5e02\u5916",
      "coordinates": [
        1.992940247438779,
        0.38933550061757316,
        51.599998474121094
      ],
      "operators": {
        "GMB": [
          "20000443"
        ]
      }
    },
    {
      "stopId": 20000444,
      "nameEn": "TAK MAN STREET",
      "nameTc": "\u5fb7\u6c11\u8857",
      "coordinates": [
        1.992959219167748,
        0.3893127938840048,
        51.599998474121094
      ],
      "operators": {
        "GMB": [
          "20000444"
        ]
      }
    },
    {
      "stopId": 20000446,
      "nameEn": "CANTON ROAD, NEAR CHINA HONG KONG CITY TOWER 6",
      "nameTc": "\u5ee3\u6771\u9053, \u8fd1\u4e2d\u6e2f\u57ce\u7b2c\uff16\u5ea7",
      "coordinates": [
        1.9926094377323558,
        0.3892171323877029,
        60.29999923706055
      ],
      "operators": {
        "GMB": [
          "20000446"
        ]
      }
    },
    {
      "stopId": 20000453,
      "nameEn": "TONG MI ROAD, OUTSIDE PAK SING BUILDING",
      "nameTc": "\u5858\u5c3e\u9053\u767e\u52dd\u5927\u5ec8\u5916",
      "coordinates": [
        1.9925699409313833,
        0.38954890202521447,
        51.900001525878906
      ],
      "operators": {
        "GMB": [
          "20000453"
        ]
      }
    },
    {
      "stopId": 20000454,
      "nameEn": "CHUNG WUI STREET, OUTSIDE CHUNG WO BUILDING",
      "nameTc": "\u4e2d\u532f\u8857, \u4e2d\u548c\u6a13\u5916",
      "coordinates": [
        1.9924938794825813,
        0.3896004415980259,
        49.5
      ],
      "operators": {
        "GMB": [
          "20000454"
        ]
      }
    },
    {
      "stopId": 20000458,
      "nameEn": "SHANGHAI STREET OUTSIDE HOUSE NO. 388",
      "nameTc": "\u4e0a\u6d77\u8857388\u865f\u5916",
      "coordinates": [
        1.9926295788319237,
        0.3894519664385588,
        37.599998474121094
      ],
      "operators": {
        "GMB": [
          "20000458"
        ]
      }
    },
    {
      "stopId": 20000462,
      "nameEn": "HOUSE NO. 38 JORDAN ROAD",
      "nameTc": "\u4f50\u6566\u9053, \u8fd1\u806f\u5fb7\u5927\u5ec8",
      "coordinates": [
        1.9926221437293103,
        0.3893036658120168,
        55.599998474121094
      ],
      "operators": {
        "GMB": [
          "20000462"
        ]
      }
    },
    {
      "stopId": 20000465,
      "nameEn": "HOK YU LANE, OUTSIDE HAPPY COURT",
      "nameTc": "\u5b78\u9918\u91cc, \u6a02\u5712\u5916",
      "coordinates": [
        1.992776779901037,
        0.3895544347189434,
        88.4000015258789
      ],
      "operators": {
        "GMB": [
          "20000465"
        ]
      }
    },
    {
      "stopId": 20000466,
      "nameEn": "MAN WAN ROAD, OUTSIDE STAR COURT",
      "nameTc": "\u6587\u904b\u9053, \u6587\u661f\u6a13\u5916",
      "coordinates": [
        1.9927681405212399,
        0.38954024519212466,
        90.19999694824219
      ],
      "operators": {
        "GMB": [
          "20000466"
        ]
      }
    },
    {
      "stopId": 20000467,
      "nameEn": "PUI CHING ROAD AT BUS BAY OUTSIDE PUI CHING SCHOOL",
      "nameTc": "\u57f9\u6b63\u9053\u5df4\u58eb\u7ad9, \u57f9\u6b63\u5b78\u6821\u5916",
      "coordinates": [
        1.9927461319193722,
        0.3895255844264079,
        31.700000762939453
      ],
      "operators": {
        "GMB": [
          "20000467"
        ]
      }
    },
    {
      "stopId": 20000468,
      "nameEn": "NO.19 SOARES AVENUE",
      "nameTc": "\u68ad\u690f\u905319\u865f",
      "coordinates": [
        1.992728172481369,
        0.38954923363777244,
        170.1999969482422
      ],
      "operators": {
        "GMB": [
          "20000468"
        ]
      }
    },
    {
      "stopId": 20000469,
      "nameEn": "ARGYLE STREET, NEAR PEACE AVENUE",
      "nameTc": "\u4e9e\u7686\u8001\u8857, \u8fd1\u592a\u5e73\u9053",
      "coordinates": [
        1.9927047850693924,
        0.3895569479930663,
        73.30000305175781
      ],
      "operators": {
        "GMB": [
          "20000469"
        ]
      }
    },
    {
      "stopId": 20000470,
      "nameEn": "NO. 62 ARGYLE STREET",
      "nameTc": "\u4e9e\u7686\u8001\u885762\u865f",
      "coordinates": [
        1.99266549770793,
        0.3895498619563031,
        56.599998474121094
      ],
      "operators": {
        "GMB": [
          "20000470"
        ]
      }
    },
    {
      "stopId": 20000472,
      "nameEn": "PUI CHING ROAD AT BUS BAY NEAR KOWLOON PUBLIC LIBRARY",
      "nameTc": "\u57f9\u6b63\u9053\u5df4\u58eb\u7ad9, \u8fd1\u4e5d\u9f8d\u516c\u5171\u5716\u66f8\u9928",
      "coordinates": [
        1.9927518915059037,
        0.3895268410634693,
        15.864867210388184
      ],
      "operators": {
        "GMB": [
          "20000472"
        ]
      }
    },
    {
      "stopId": 20000473,
      "nameEn": "MAN FUK ROAD, OUTSIDE BLOCK B, CAMBRIDGE COURT",
      "nameTc": "\u6587\u798f\u9053, \u51a0\u83ef\u5712B\u5ea7\u5916",
      "coordinates": [
        1.9927611941108165,
        0.3895468599899897,
        91.30000305175781
      ],
      "operators": {
        "GMB": [
          "20000473"
        ]
      }
    },
    {
      "stopId": 20000475,
      "nameEn": "CHEONG WAN ROAD, NEAR HUNG HOM STATION",
      "nameTc": "\u66a2\u904b\u9053, \u8fd1\u7d05\u78e1\u7ad9",
      "coordinates": [
        1.9928655473467933,
        0.38927703208763137,
        21.700000762939453
      ],
      "operators": {
        "GMB": [
          "20000475"
        ]
      }
    },
    {
      "stopId": 20000476,
      "nameEn": "AUSTIN ROAD, NEAR GARDEN MANSION",
      "nameTc": "\u67ef\u58eb\u7538\u9053, \u8fd1\u82b1\u5712\u5927\u5ec8",
      "coordinates": [
        1.9927383302976156,
        0.3892667870049222,
        42.5
      ],
      "operators": {
        "GMB": [
          "20000476"
        ]
      }
    },
    {
      "stopId": 20000478,
      "nameEn": "AUSTIN ROAD, NEAR YIU KEI MANSION",
      "nameTc": "\u67ef\u58eb\u7538\u9053, \u8fd1\u8000\u57fa\u5927\u5ec8",
      "coordinates": [
        1.9926858307937156,
        0.3892647275164048,
        102.9000015258789
      ],
      "operators": {
        "GMB": [
          "20000478"
        ]
      }
    },
    {
      "stopId": 20000479,
      "nameEn": "AUSTIN ROAD, NEAR BP INTERNATIONAL HOUSE",
      "nameTc": "\u67ef\u58eb\u7538\u9053, \u8fd1\u9f8d\u5821\u570b\u969b",
      "coordinates": [
        1.992640766392429,
        0.38926125431119335,
        107.69999694824219
      ],
      "operators": {
        "GMB": [
          "20000479"
        ]
      }
    },
    {
      "stopId": 20000482,
      "nameEn": "AUSTIN ROAD, NEAR LUCKY BUILDING",
      "nameTc": "\u67ef\u58eb\u7538\u9053, \u8fd1\u5e78\u904b\u5927\u5ec8",
      "coordinates": [
        1.9926516048870841,
        0.38926504167567016,
        58.29999923706055
      ],
      "operators": {
        "GMB": [
          "20000482"
        ]
      }
    },
    {
      "stopId": 20000483,
      "nameEn": "AUSTIN ROAD, NEAR TAK SUN SCHOOL",
      "nameTc": "\u67ef\u58eb\u7538\u9053, \u8fd1\u5fb7\u4fe1\u5b78\u6821",
      "coordinates": [
        1.9926837887584907,
        0.38926710116418756,
        31.600000381469727
      ],
      "operators": {
        "GMB": [
          "20000483"
        ]
      }
    },
    {
      "stopId": 20000484,
      "nameEn": "AUSTIN ROAD, NEAR GUN CLUB HILL BARRACKS BLOCK 14",
      "nameTc": "\u67ef\u58eb\u7538\u9053, \u8fd1\u69cd\u6703\u5c71\u8ecd\u71df\u7b2c\uff11\uff14\u5ea7",
      "coordinates": [
        1.9927425714476978,
        0.3892691431994123,
        10.738313674926758
      ],
      "operators": {
        "GMB": [
          "20000484"
        ]
      }
    },
    {
      "stopId": 20000489,
      "nameEn": "WAI KING STREET, OUTSIDE BLOCK A, WEI CHIEN COURT",
      "nameTc": "\u5049\u666f\u8857, \u5049\u666f\u95a3A\u5ea7\u5916",
      "coordinates": [
        1.9930300446287939,
        0.3895093354110718,
        45.5
      ],
      "operators": {
        "GMB": [
          "20000489"
        ]
      }
    },
    {
      "stopId": 20000490,
      "nameEn": "TO KWA WAN ROAD, OUTSIDE TO KWA WAN MANSION",
      "nameTc": "\u571f\u74dc\u7063\u9053, \u571f\u74dc\u7063\u5927\u5ec8\u5916",
      "coordinates": [
        1.9929998853393196,
        0.3895057225795202,
        45.5
      ],
      "operators": {
        "GMB": [
          "20000490"
        ]
      }
    },
    {
      "stopId": 20000506,
      "nameEn": "TO KWA WAN ROAD, OUTSIDE WEARBEST BUILDING",
      "nameTc": "\u571f\u74dc\u7063\u9053, \u552f\u4e00\u5927\u5ec8\u5916",
      "coordinates": [
        1.9929715935521446,
        0.389481445049625,
        51.79999923706055
      ],
      "operators": {
        "GMB": [
          "20000506"
        ]
      }
    },
    {
      "stopId": 20000508,
      "nameEn": "SAN MA TAU ROAD, KAPOK INDUSTRIAL BUILDING",
      "nameTc": "\u65b0\u78bc\u982d\u8857, \u7d05\u68c9\u5de5\u696d\u5927\u5ec8",
      "coordinates": [
        1.9930313885323179,
        0.38953502665766115,
        46.0
      ],
      "operators": {
        "GMB": [
          "20000508"
        ]
      }
    },
    {
      "stopId": 20000519,
      "nameEn": "WOH CHAI STREET, OUTSIDE MING YIN COLLEGE",
      "nameTc": "\u7aa9\u4ed4\u8857, \u9298\u8ce2\u66f8\u9662\u5916",
      "coordinates": [
        1.992616698302044,
        0.38976057555689636,
        35.79999923706055
      ],
      "operators": {
        "GMB": [
          "20000519"
        ]
      }
    },
    {
      "stopId": 20000540,
      "nameEn": "PAK WAN STREET, PAK TIN ESTATE BUS TERMINUS",
      "nameTc": "\u767d\u96f2\u8857, \u767d\u7530\u90a8\u5df4\u58eb\u7e3d\u7ad9",
      "coordinates": [
        1.9925916179206928,
        0.38985531202869467,
        130.0
      ],
      "operators": {
        "GMB": [
          "20000540"
        ]
      }
    },
    {
      "stopId": 20000541,
      "nameEn": "TAI HANG TUNG ROAD, OUTSIDE TUNG LUNG HOUSE, TAI HANG TUNG ESTATE",
      "nameTc": "\u5927\u5751\u6771\u9053, \u5927\u5751\u6771\u90a8\u6771\u9f8d\u6a13\u5916",
      "coordinates": [
        1.9926626004613714,
        0.3897574339642428,
        42.599998474121094
      ],
      "operators": {
        "GMB": [
          "20000541"
        ]
      }
    },
    {
      "stopId": 20000544,
      "nameEn": "ARGYLE STREET, OUTSIDE SINCERE BUILDING",
      "nameTc": "\u4e9e\u7686\u8001\u8857, \u5148\u65bd\u5927\u5ec8\u5916",
      "coordinates": [
        1.992653978534867,
        0.389551903991528,
        57.79999923706055
      ],
      "operators": {
        "GMB": [
          "20000544"
        ]
      }
    },
    {
      "stopId": 20000546,
      "nameEn": "TUNG CHOI STREET, OUTSIDE MONG KOK POLICE STATION",
      "nameTc": "\u901a\u83dc\u8857, \u65fa\u89d2\u8b66\u7f72\u5916",
      "coordinates": [
        1.9926317779467815,
        0.38963906573437257,
        37.5
      ],
      "operators": {
        "GMB": [
          "20000546"
        ]
      }
    },
    {
      "stopId": 20000547,
      "nameEn": "MONGKOK EAST STATION",
      "nameTc": "\u65fa\u89d2\u6771\u7ad9",
      "coordinates": [
        1.9926807344322996,
        0.38959366972052817,
        53.0
      ],
      "operators": {
        "GMB": [
          "20000547"
        ]
      }
    },
    {
      "stopId": 20000550,
      "nameEn": "JUNCTION ROAD NEAR NGA TSIN WAI ROAD ",
      "nameTc": "\u806f\u5408\u9053, \u65b0\u6cf0\u6a13",
      "coordinates": [
        1.9929399332795135,
        0.38970399198254674,
        99.9000015258789
      ],
      "operators": {
        "GMB": [
          "20000550"
        ]
      }
    },
    {
      "stopId": 20000551,
      "nameEn": "NO.243 TO KWA WAN ROAD",
      "nameTc": "\u571f\u74dc\u7063\u9053243\u865f",
      "coordinates": [
        1.9929822575138743,
        0.389487117369694,
        51.29999923706055
      ],
      "operators": {
        "GMB": [
          "20000551"
        ]
      }
    },
    {
      "stopId": 20000553,
      "nameEn": "NO.39 MA TAU WAI ROAD",
      "nameTc": "\u99ac\u982d\u570d\u905339\u865f",
      "coordinates": [
        1.9929512604663588,
        0.3893845094629692,
        51.099998474121094
      ],
      "operators": {
        "GMB": [
          "20000553"
        ]
      }
    },
    {
      "stopId": 20000554,
      "nameEn": "NO.21 TAK MAN STREET",
      "nameTc": "\u5fb7\u6c11\u885721\u865f",
      "coordinates": [
        1.9929551525505906,
        0.3893153246114202,
        50.900001525878906
      ],
      "operators": {
        "GMB": [
          "20000554"
        ]
      }
    },
    {
      "stopId": 20000556,
      "nameEn": "MA TAU WAI ROAD, NEAR KA YEE LAU, KA WAI CHUEN",
      "nameTc": "\u99ac\u982d\u570d\u9053, \u8fd1\u5bb6\u7dad\u90a8\u5bb6\u7fa9\u6a13",
      "coordinates": [
        1.9929414342626703,
        0.38934195833580554,
        51.599998474121094
      ],
      "operators": {
        "GMB": [
          "20000556"
        ]
      }
    },
    {
      "stopId": 20000557,
      "nameEn": "MA TAU WAI ROAD, NEAR CARLTON COURT",
      "nameTc": "\u99ac\u982d\u570d\u9053, \u8fd1\u5609\u6717\u8c6a\u5ead",
      "coordinates": [
        1.992948206140168,
        0.389368592060191,
        94.19999694824219
      ],
      "operators": {
        "GMB": [
          "20000557"
        ]
      }
    },
    {
      "stopId": 20000558,
      "nameEn": "NO.156 MA TAU WAI ROAD",
      "nameTc": "\u99ac\u982d\u570d\u9053156\u865f",
      "coordinates": [
        1.9929487122856508,
        0.38941114318735465,
        46.599998474121094
      ],
      "operators": {
        "GMB": [
          "20000558"
        ]
      }
    },
    {
      "stopId": 20000561,
      "nameEn": "WANG TAU HOM SOUTH ROAD, OUTSIDE WANG SHUN HOUSE, WANG TAU HOM ESTATE",
      "nameTc": "\u6a6b\u982d\u78e1\u5357\u9053, \u6a6b\u982d\u78e1\u90a8\u5b8f\u9806\u6a13\u5916",
      "coordinates": [
        1.9929323236439747,
        0.38988210283271274,
        87.19999694824219
      ],
      "operators": {
        "GMB": [
          "20000561"
        ]
      }
    },
    {
      "stopId": 20000563,
      "nameEn": "JUNCTION ROAD AT LAMP POST NO.K8917",
      "nameTc": "\u806f\u5408\u90538917\u865f\u96fb\u71c8\u67f1",
      "coordinates": [
        1.9929385719226969,
        0.3897303115476668,
        30.899999618530273
      ],
      "operators": {
        "GMB": [
          "20000563"
        ]
      }
    },
    {
      "stopId": 20000566,
      "nameEn": "CHOI WAN COMMERCIAL COMPLEX, CLEAR WATER BAY ROAD\t",
      "nameTc": "\u6e05\u6c34\u7063\u9053, \u5f69\u96f2\u5546\u5834\t",
      "coordinates": [
        1.9934241399738941,
        0.389792654708548,
        62.400001525878906
      ],
      "operators": {
        "GMB": [
          "20000566"
        ]
      }
    },
    {
      "stopId": 20000568,
      "nameEn": "\tCHOI WAN COMMERCIAL COMPLEX, CLEAR WATER BAY ROAD",
      "nameTc": "\u6e05\u6c34\u7063\u9053, \u5f69\u96f2\u5546\u5834\t",
      "coordinates": [
        1.9934285382036092,
        0.38979738455082097,
        63.29999923706055
      ],
      "operators": {
        "GMB": [
          "20000568"
        ]
      }
    },
    {
      "stopId": 20000580,
      "nameEn": "NGA CHUK STREET, NGA YUEN HOUSE CHUK YUEN SOUTH ESTATE",
      "nameTc": "\u96c5\u7af9\u8857, \u7af9\u5712\u5357\u90a8\u96c5\u5712\u6a13",
      "coordinates": [
        1.9930699079489096,
        0.3899829654101855,
        44.11488723754883
      ],
      "operators": {
        "GMB": [
          "20000580"
        ]
      }
    },
    {
      "stopId": 20000581,
      "nameEn": "SHATIN PASS ROAD, OPPOSITE DIAMOND HILL KWONG YUM HOME FOR THE AGED",
      "nameTc": "\u6c99\u7530\u5773\u9053, \u947d\u77f3\u5c71\u5ee3\u852d\u8001\u4eba\u9662\u5c0d\u9762",
      "coordinates": [
        1.9930936269734443,
        0.39001464313610923,
        64.55115509033203
      ],
      "operators": {
        "GMB": [
          "20000581"
        ]
      }
    },
    {
      "stopId": 20000582,
      "nameEn": "TSZ WAN SHAN ROAD, OUTSIDE WO TIN HOUSE, SHATIN PASS ESTATE",
      "nameTc": "\u6148\u96f2\u5c71\u9053, \u6c99\u7530\u5773\u90a8\u548c\u7530\u6a13\u5916",
      "coordinates": [
        1.993079751605891,
        0.39006997007339744,
        235.1999969482422
      ],
      "operators": {
        "GMB": [
          "20000582"
        ]
      }
    },
    {
      "stopId": 20000583,
      "nameEn": "SHATIN PASS ROAD, OUTSIDE WONG TAI SIN HOSPITAL",
      "nameTc": "\u6c99\u7530\u5773\u9053, \u6771\u83ef\u4e09\u9662\u9ec3\u5927\u4ed9\u91ab\u9662\u5916",
      "coordinates": [
        1.9930943076518526,
        0.39002946098145863,
        75.75048828125
      ],
      "operators": {
        "GMB": [
          "20000583"
        ]
      }
    },
    {
      "stopId": 20000584,
      "nameEn": "SHATIN PASS ROAD, OUTSIDE DIAMOND HILL KWONG YUM HOME FOR THE AGED",
      "nameTc": "\u6c99\u7530\u5773\u9053, \u947d\u77f3\u5c71\u5ee3\u852d\u8001\u4eba\u9662\u5916",
      "coordinates": [
        1.993096332233785,
        0.3900116411697958,
        79.5
      ],
      "operators": {
        "GMB": [
          "20000584"
        ]
      }
    },
    {
      "stopId": 20000585,
      "nameEn": "NGA CHUK STREET, OUTSIDE CHUI YUEN HOUSE, CHUK YUEN SOUTH ESTATE",
      "nameTc": "\u96c5\u7af9\u8857, \u7af9\u5712\u5357\u90a8\u8da3\u5712\u6a13\u5916",
      "coordinates": [
        1.9930690527375758,
        0.3899805917624028,
        98.5999984741211
      ],
      "operators": {
        "GMB": [
          "20000585"
        ]
      }
    },
    {
      "stopId": 20000586,
      "nameEn": "YI LUN STREET, OUTSIDE PAK LOK HOUSE",
      "nameTc": "\u5f5d\u502b\u8857, \u767e\u6a02\u5927\u6a13\u5916",
      "coordinates": [
        1.9931034357238404,
        0.3898218715202264,
        32.20000076293945
      ],
      "operators": {
        "GMB": [
          "20000586"
        ]
      }
    },
    {
      "stopId": 20000588,
      "nameEn": "DIAMOND HILL STATION PUBLIC TRANSPORT INTERCHANGE",
      "nameTc": "\u947d\u77f3\u5c71\u7ad9\u516c\u5171\u904b\u8f38\u4ea4\u532f\u8655",
      "coordinates": [
        1.993205432765327,
        0.3899158051405688,
        44.79999923706055
      ],
      "operators": {
        "GMB": [
          "20000588"
        ]
      }
    },
    {
      "stopId": 20000589,
      "nameEn": "HAMMER HILL ROAD, OUTSIDE GRAND VIEW GARDEN COMMERCIAL AND CAR PARK BLOCK",
      "nameTc": "\u65a7\u5c71\u9053, \u5b8f\u666f\u82b1\u5712\u7d9c\u5408\u5927\u6a13\u53ca\u505c\u8eca\u5834\u5916",
      "coordinates": [
        1.9933101525204466,
        0.38992002883735866,
        67.5999984741211
      ],
      "operators": {
        "GMB": [
          "20000589"
        ]
      }
    },
    {
      "stopId": 20000590,
      "nameEn": "PO KONG VILLAGE ROAD, OUTSIDE ABOUNDING GRACE BAPTIST CHURCH",
      "nameTc": "\u84b2\u5d17\u6751\u9053, \u6069\u6f6e\u6d78\u4fe1\u6703\u5916",
      "coordinates": [
        1.9933038867884318,
        0.38994982160769015,
        95.30000305175781
      ],
      "operators": {
        "GMB": [
          "20000590"
        ]
      }
    },
    {
      "stopId": 20000591,
      "nameEn": "TSZ WAN SHAN ROAD, OPPOSITE TAK OI SECONDARY SCHOOL",
      "nameTc": "\u6148\u96f2\u5c71\u9053, \u5fb7\u611b\u4e2d\u5b78\u5c0d\u9762",
      "coordinates": [
        1.9932379831558766,
        0.3900388857594194,
        93.4000015258789
      ],
      "operators": {
        "GMB": [
          "20000591"
        ]
      }
    },
    {
      "stopId": 20000592,
      "nameEn": "WAI WAH STREET, OUTSIDE TSZ WAN SHAN SHOPPING CENTRE",
      "nameTc": "\u60e0\u83ef\u8857, \u6148\u96f2\u5c71\u4e2d\u5fc3\u5916",
      "coordinates": [
        1.9931724285891717,
        0.3900609641744572,
        118.80000305175781
      ],
      "operators": {
        "GMB": [
          "20000592"
        ]
      }
    },
    {
      "stopId": 20000594,
      "nameEn": "TSZ WAN SHAN ROAD, OUTSIDE CHING FAI HOUSE, TSZ CHING ESTATE",
      "nameTc": "\u6148\u96f2\u5c71\u9053, \u6148\u6b63\u90a8\u6b63\u6689\u6a13\u5916",
      "coordinates": [
        1.9931832670838265,
        0.39008492754508706,
        188.8000030517578
      ],
      "operators": {
        "GMB": [
          "20000594"
        ]
      }
    },
    {
      "stopId": 20000595,
      "nameEn": "TSZ WAN SHAN ROAD, OUTSIDE CHING HONG HOUSE, TSZ CHING ESTATE",
      "nameTc": "\u6148\u96f2\u5c71\u9053, \u6148\u6b63\u90a8\u6b63\u5eb7\u6a13\u5916",
      "coordinates": [
        1.993220041171166,
        0.3900581192877764,
        115.5999984741211
      ],
      "operators": {
        "GMB": [
          "20000595"
        ]
      }
    },
    {
      "stopId": 20000596,
      "nameEn": "TSZ WAN SHAN ROAD, OUTSIDE LOK WAH STREET PLAYGROUND",
      "nameTc": "\u6148\u96f2\u5c71\u9053, \u6a02\u83ef\u8857\u904a\u6a02\u5834\u5916",
      "coordinates": [
        1.9932405313365844,
        0.3900472458865365,
        90.36188507080078
      ],
      "operators": {
        "GMB": [
          "20000596"
        ]
      }
    },
    {
      "stopId": 20000597,
      "nameEn": "PO KONG VILLAGE ROAD, OUTSIDE FU YUN HOUSE",
      "nameTc": "\u84b2\u5d17\u6751\u9053, \u5bcc\u4ec1\u6a13\u5916",
      "coordinates": [
        1.9933065920487725,
        0.38995044992622085,
        61.0
      ],
      "operators": {
        "GMB": [
          "20000597"
        ]
      }
    },
    {
      "stopId": 20000598,
      "nameEn": "HAMMER HILL ROAD, OUTSIDE BLOCK C, SUN LAI GARDEN",
      "nameTc": "\u65a7\u5c71\u9053, \u65b0\u9e97\u82b1\u5712C\u5ea7\u5916",
      "coordinates": [
        1.9933143762172363,
        0.38992240248514126,
        52.900001525878906
      ],
      "operators": {
        "GMB": [
          "20000598"
        ]
      }
    },
    {
      "stopId": 20000599,
      "nameEn": "HAMMER HILL ROAD, OUTSIDE EAST KOWLOON CHEST CLINIC",
      "nameTc": "\u65a7\u5c71\u9053, \u6771\u4e5d\u9f8d\u80f8\u80ba\u79d1\u8a3a\u6240\u5916",
      "coordinates": [
        1.9932984588144582,
        0.3899046001267709,
        34.0
      ],
      "operators": {
        "GMB": [
          "20000599"
        ]
      }
    },
    {
      "stopId": 20000600,
      "nameEn": "FUNG TAK ROAD, OPPOSITE TO FUNG TAK ESTATE",
      "nameTc": "\u9cf3\u5fb7\u9053, \u9f8d\u87e0\u82d1\u9f8d\u73ca\u95a3\u5916\t",
      "coordinates": [
        1.9931839303089423,
        0.3899547259828883,
        24.42511749267578
      ],
      "operators": {
        "GMB": [
          "20000600"
        ]
      }
    },
    {
      "stopId": 20000603,
      "nameEn": "MING FUNG STREET, OUTSIDE FUNG WONG BUILDING",
      "nameTc": "\u9cf4\u9cf3\u8857, \u9cf3\u51f0\u5927\u6a13\u5916",
      "coordinates": [
        1.9931182012093123,
        0.3899804346827701,
        61.0
      ],
      "operators": {
        "GMB": [
          "20000603"
        ]
      }
    },
    {
      "stopId": 20000604,
      "nameEn": "SHEUNG FUNG STREET, OUTSIDE LOK CHEUNG HOUSE, TSZ LOK ESTATE",
      "nameTc": "\u96d9\u9cf3\u8857, \u6148\u6a02\u90a8\u6a02\u7965\u6a13\u5916",
      "coordinates": [
        1.9931437877361466,
        0.3900573513429055,
        190.3000030517578
      ],
      "operators": {
        "GMB": [
          "20000604"
        ]
      }
    },
    {
      "stopId": 20000607,
      "nameEn": "YUK WAH STREET, OUTSIDE MANNING THEATRE BUILDING",
      "nameTc": "\u6bd3\u83ef\u8857, \u842c\u5e74\u6232\u9662\u5927\u5ec8\u5916",
      "coordinates": [
        1.9932064799628781,
        0.39003164264302365,
        174.89999389648438
      ],
      "operators": {
        "GMB": [
          "20000607"
        ]
      }
    },
    {
      "stopId": 20000613,
      "nameEn": "TSEUK LUK STREET, NEAR WING LOK BUILDING",
      "nameTc": "\u7235\u797f\u8857, \u8fd1\u6c38\u6a02\u5510\u6a13",
      "coordinates": [
        1.9930893683700692,
        0.38984426409452955,
        28.600000381469727
      ],
      "operators": {
        "GMB": [
          "20000613"
        ]
      }
    },
    {
      "stopId": 20000615,
      "nameEn": "CHING TAK STREET, OUTSIDE WONG TAI SIN SHOPPING CENTRE",
      "nameTc": "\u6b63\u5fb7\u8857, \u8fd1\u9ec3\u5927\u4ed9\u4e0b\u90a8\u9f8d\u8f1d\u6a13",
      "coordinates": [
        1.9930666790897933,
        0.3899276384728973,
        85.9000015258789
      ],
      "operators": {
        "GMB": [
          "20000615"
        ]
      }
    },
    {
      "stopId": 20000620,
      "nameEn": "TAI KOK TSUI (CHERRY STREET) GMB TERMINUS",
      "nameTc": "\u5927\u89d2\u5480(\u6afb\u6843\u8857)\u5c08\u7dda\u5c0f\u5df4\u7e3d\u7ad9",
      "coordinates": [
        1.9925040547521207,
        0.3895180096974542,
        6.497645854949951
      ],
      "operators": {
        "GMB": [
          "20000620"
        ]
      }
    },
    {
      "stopId": 20000622,
      "nameEn": "IVY STREET, NEAR KOK CHEUNG STREET",
      "nameTc": "\u57c3\u83ef\u8857, \u8fd1\u89d2\u7965\u8857",
      "coordinates": [
        1.9924794805162522,
        0.389581208069669,
        46.29999923706055
      ],
      "operators": {
        "GMB": [
          "20000622"
        ]
      }
    },
    {
      "stopId": 20000625,
      "nameEn": "WATERLOO ROAD NEAR PORTLAND STREET",
      "nameTc": "\u7aa9\u6253\u8001\u9053, \u8fd1\u7835\u862d\u8857",
      "coordinates": [
        1.9926405918595038,
        0.3894346353190865,
        33.0
      ],
      "operators": {
        "GMB": [
          "20000625"
        ]
      }
    },
    {
      "stopId": 20000626,
      "nameEn": "WATERLOO ROAD OUTSIDE KWONG WAH HOSPITAL",
      "nameTc": "\u7aa9\u6253\u8001\u9053\u5ee3\u83ef\u91ab\u9662\u5916",
      "coordinates": [
        1.992688361521131,
        0.3894682154538948,
        100.0
      ],
      "operators": {
        "GMB": [
          "20000626"
        ]
      }
    },
    {
      "stopId": 20000627,
      "nameEn": "YIM PO FONG STREET, NEAR LISA HOUSE",
      "nameTc": "\u67d3\u5e03\u623f\u885712\u865f\u5916",
      "coordinates": [
        1.9926926026712133,
        0.3895419730680841,
        86.19999694824219
      ],
      "operators": {
        "GMB": [
          "20000627"
        ]
      }
    },
    {
      "stopId": 20000628,
      "nameEn": "PRINCE EDWARD ROAD WEST OUTSIDE HOUSE NO. 171",
      "nameTc": "\u592a\u5b50\u9053\u897f171\u865f\u5916",
      "coordinates": [
        1.9926329647706729,
        0.38962882065166327,
        98.5999984741211
      ],
      "operators": {
        "GMB": [
          "20000628"
        ]
      }
    },
    {
      "stopId": 20000629,
      "nameEn": "TUNG CHAU STREET, OUTSIDE CHEONG HING BUILDING",
      "nameTc": "\u901a\u5dde\u8857, \u8fd1\u901a\u5dde\u8857\u8b8a\u96fb\u7ad9",
      "coordinates": [
        1.9925382632054593,
        0.38961761563786557,
        49.599998474121094
      ],
      "operators": {
        "GMB": [
          "20000629"
        ]
      }
    },
    {
      "stopId": 20000630,
      "nameEn": "TAI KOK TSUI ROAD OUTSIDE IVY STREET REST GARDEN",
      "nameTc": "\u5927\u89d2\u5480\u9053\u57c3\u83ef\u8857\u4f11\u61a9\u516c\u5712\u5916",
      "coordinates": [
        1.9925035311533448,
        0.3895871945490033,
        4.177860260009766
      ],
      "operators": {
        "GMB": [
          "20000630"
        ]
      }
    },
    {
      "stopId": 20000631,
      "nameEn": "TAI KOK TSUI ROAD OUTSIDE HOUSE NO. 38",
      "nameTc": "\u5927\u89d2\u5480\u905338\u865f\u5916",
      "coordinates": [
        1.9925052415760118,
        0.3895578904708623,
        51.79999923706055
      ],
      "operators": {
        "GMB": [
          "20000631"
        ]
      }
    },
    {
      "stopId": 20000633,
      "nameEn": "HONG NING ROAD, OUTSIDE HONG NING COURT",
      "nameTc": "\u5eb7\u5be7\u9053\u8857\u5e02",
      "coordinates": [
        1.9935765072175933,
        0.38947880960245446,
        97.80000305175781
      ],
      "operators": {
        "GMB": [
          "20000633"
        ]
      }
    },
    {
      "stopId": 20000662,
      "nameEn": "LEI YUE MUN ROAD, LAM TIN STATION",
      "nameTc": "\u9bc9\u9b5a\u9580\u9053\u6e2f\u9435\u85cd\u7530\u7ad9",
      "coordinates": [
        1.9937614248518423,
        0.38930521915505106,
        68.0999984741211
      ],
      "operators": {
        "GMB": [
          "20000662"
        ]
      }
    },
    {
      "stopId": 20000673,
      "nameEn": "KOWLOON TONG STATION, OPPOSITE KENT ROAD EXIT",
      "nameTc": "\u6e2f\u9435\u4e5d\u9f8d\u5858\u7ad9\u6839\u5fb7\u9053\u51fa\u53e3\u5c0d\u9762",
      "coordinates": [
        1.9927552774446524,
        0.3898575111435522,
        31.899999618530273
      ],
      "operators": {
        "GMB": [
          "20000673"
        ]
      }
    },